{"clusters":[{"id":"city-0","center":{"lng":-99.0970574409799,"lat":19.457772625535714},"radiusKm":40.14587072436593,"totalPopulation":20326964,"memberNodeCount":111,"name":"Mexico City","matchedCity":{"name":"Mexico City","country":"MX","lat":19.42847,"lon":-99.12766,"pop":12294193,"rank":13}},{"id":"city-1","center":{"lng":-73.9536804388904,"lat":40.75419288293182},"radiusKm":34.355421404392864,"totalPopulation":12739011,"memberNodeCount":90,"name":"New York City","matchedCity":{"name":"New York City","country":"US","lat":40.71427,"lon":-74.00597,"pop":8804190,"rank":30}},{"id":"city-2","center":{"lng":-118.20629438047482,"lat":33.98740446658763},"radiusKm":29.172023932024054,"totalPopulation":7799191,"memberNodeCount":67,"name":"Los Angeles","matchedCity":{"name":"Los Angeles","country":"US","lat":34.05223,"lon":-118.24368,"pop":3820914,"rank":87}},{"id":"city-3","center":{"lng":-103.35537536796186,"lat":20.62057946875946},"radiusKm":25.947505979370245,"totalPopulation":5488286,"memberNodeCount":44,"name":"Zapopan","matchedCity":{"name":"Zapopan","country":"MX","lat":20.72111,"lon":-103.38742,"pop":1476491,"rank":316}},{"id":"city-4","center":{"lng":-100.27463385001022,"lat":25.727976682413274},"radiusKm":24.712518904999712,"totalPopulation":4741338,"memberNodeCount":41,"name":"Monterrey","matchedCity":{"name":"Monterrey","country":"MX","lat":25.68435,"lon":-100.31721,"pop":1135512,"rank":458}},{"id":"city-5","center":{"lng":-69.92363729202825,"lat":18.495288656611663},"radiusKm":24.518956781042462,"totalPopulation":4630798,"memberNodeCount":53,"name":"Santo Domingo","matchedCity":{"name":"Santo Domingo","country":"DO","lat":18.47186,"lon":-69.89232,"pop":2201941,"rank":175}},{"id":"city-6","center":{"lng":-79.40374127501984,"lat":43.74751443679822},"radiusKm":23.446794984815853,"totalPopulation":4049490,"memberNodeCount":38,"name":"Toronto","matchedCity":{"name":"Toronto","country":"CA","lat":43.70643,"lon":-79.39864,"pop":2794356,"rank":126}},{"id":"city-7","center":{"lng":-87.73460300276437,"lat":41.8732084978009},"radiusKm":23.40394554219975,"totalPopulation":4027329,"memberNodeCount":40,"name":"Chicago","matchedCity":{"name":"Chicago","country":"US","lat":41.85003,"lon":-87.65005,"pop":2664452,"rank":140}},{"id":"city-8","center":{"lng":-73.62433028551462,"lat":45.534908105767364},"radiusKm":21.611227222340936,"totalPopulation":3170941,"memberNodeCount":37,"name":"Montréal","matchedCity":{"name":"Montréal","country":"CA","lat":45.50884,"lon":-73.58781,"pop":1762949,"rank":238}},{"id":"city-9","center":{"lng":-72.32327553343885,"lat":18.54303503212478},"radiusKm":21.592416255682306,"totalPopulation":3162668,"memberNodeCount":43,"name":"Port-au-Prince","matchedCity":{"name":"Port-au-Prince","country":"HT","lat":18.54349,"lon":-72.33881,"pop":1234742,"rank":411}},{"id":"city-10","center":{"lng":-90.5550554302618,"lat":14.595248428772248},"radiusKm":21.56185280230048,"totalPopulation":3149257,"memberNodeCount":41,"name":"Guatemala City","matchedCity":{"name":"Guatemala City","country":"GT","lat":14.64072,"lon":-90.51327,"pop":994938,"rank":539}},{"id":"city-11","center":{"lng":-66.90170568887478,"lat":10.482112400463588},"radiusKm":21.469093043405255,"totalPopulation":3108787,"memberNodeCount":38,"name":"Caracas","matchedCity":{"name":"Caracas","country":"VE","lat":10.48801,"lon":-66.87919,"pop":3000000,"rank":116}},{"id":"city-12","center":{"lng":-75.14466822303815,"lat":39.99776624265632},"radiusKm":20.450599279793046,"totalPopulation":2687002,"memberNodeCount":37,"name":"Philadelphia","matchedCity":{"name":"Philadelphia","country":"US","lat":39.95238,"lon":-75.16362,"pop":1573916,"rank":284}},{"id":"city-13","center":{"lng":-95.48983962559916,"lat":29.741810717485812},"radiusKm":20.406283783486327,"totalPopulation":2669572,"memberNodeCount":34,"name":"Houston","matchedCity":{"name":"Houston","country":"US","lat":29.76328,"lon":-95.36327,"pop":2314157,"rank":164}},{"id":"city-14","center":{"lng":-77.05600590944537,"lat":38.91293402149498},"radiusKm":20.15906133218063,"totalPopulation":2573717,"memberNodeCount":35,"name":"Washington","matchedCity":{"name":"Washington","country":"US","lat":38.89511,"lon":-77.03637,"pop":689545,"rank":773}},{"id":"city-15","center":{"lng":-98.21223378542265,"lat":19.05658843850181},"radiusKm":19.936857407100558,"totalPopulation":2489545,"memberNodeCount":29,"name":"Puebla","matchedCity":{"name":"Puebla","country":"MX","lat":19.04778,"lon":-98.20723,"pop":1692181,"rank":251}},{"id":"city-16","center":{"lng":-82.34865559710981,"lat":23.066131448305796},"radiusKm":19.896443406453606,"totalPopulation":2474436,"memberNodeCount":32,"name":"Havana","matchedCity":{"name":"Havana","country":"CU","lat":23.13302,"lon":-82.38304,"pop":2163824,"rank":178}},{"id":"city-17","center":{"lng":-115.16719818254673,"lat":36.14395254939122},"radiusKm":19.593923199099315,"totalPopulation":2363274,"memberNodeCount":29,"name":"Las Vegas","matchedCity":{"name":"Las Vegas","country":"US","lat":36.17497,"lon":-115.13722,"pop":641903,"rank":835}},{"id":"city-18","center":{"lng":-74.80207870966329,"lat":10.93985168848849},"radiusKm":19.581130114125052,"totalPopulation":2358648,"memberNodeCount":24,"name":"Barranquilla","matchedCity":{"name":"Barranquilla","country":"CO","lat":10.96854,"lon":-74.78132,"pop":1206319,"rank":424}},{"id":"city-19","center":{"lng":-84.08232045866531,"lat":9.93956776581172},"radiusKm":19.420413648455412,"totalPopulation":2301046,"memberNodeCount":31,"name":"San José","matchedCity":{"name":"San José","country":"CR","lat":9.93388,"lon":-84.08489,"pop":335007,"rank":1635}},{"id":"city-20","center":{"lng":-122.99728577417119,"lat":49.227758798741476},"radiusKm":19.035645510534387,"totalPopulation":2166969,"memberNodeCount":34,"name":"Vancouver","matchedCity":{"name":"Vancouver","country":"CA","lat":49.24966,"lon":-123.11934,"pop":662248,"rank":808}},{"id":"city-21","center":{"lng":-71.65126605883776,"lat":10.645467067440915},"radiusKm":18.67462017354804,"totalPopulation":2045998,"memberNodeCount":31,"name":"Maracaibo","matchedCity":{"name":"Maracaibo","country":"VE","lat":10.64232,"lon":-71.61089,"pop":1752602,"rank":240}},{"id":"city-22","center":{"lng":-112.11870795950955,"lat":33.53968937458989},"radiusKm":18.5647721639963,"totalPopulation":2010105,"memberNodeCount":27,"name":"Phoenix","matchedCity":{"name":"Phoenix","country":"US","lat":33.44838,"lon":-112.07404,"pop":1650070,"rank":265}},{"id":"city-23","center":{"lng":-117.06308014406292,"lat":32.66788233258775},"radiusKm":18.209663791540805,"totalPopulation":1896949,"memberNodeCount":23,"name":"San Diego","matchedCity":{"name":"San Diego","country":"US","lat":32.71571,"lon":-117.16472,"pop":1404452,"rank":346}},{"id":"city-24","center":{"lng":-89.17419993415369,"lat":13.727879242110102},"radiusKm":18.149349292061327,"totalPopulation":1878162,"memberNodeCount":29,"name":"San Salvador","matchedCity":{"name":"San Salvador","country":"SV","lat":13.68935,"lon":-89.18718,"pop":525990,"rank":1035}},{"id":"city-25","center":{"lng":-71.10602649138444,"lat":42.36395780782447},"radiusKm":18.025906146345804,"totalPopulation":1840099,"memberNodeCount":25,"name":"Boston","matchedCity":{"name":"Boston","country":"US","lat":42.35843,"lon":-71.05977,"pop":653833,"rank":820}},{"id":"city-26","center":{"lng":-106.4028710992137,"lat":31.691381379646625},"radiusKm":17.933275200435187,"totalPopulation":1811877,"memberNodeCount":23,"name":"Ciudad Juárez","matchedCity":{"name":"Ciudad Juárez","country":"MX","lat":31.72024,"lon":-106.46084,"pop":1512450,"rank":304}},{"id":"city-27","center":{"lng":-80.24052194954541,"lat":25.926505614869004},"radiusKm":17.81840154850811,"totalPopulation":1777281,"memberNodeCount":28,"name":"Miami","matchedCity":{"name":"Miami","country":"US","lat":25.77427,"lon":-80.19366,"pop":487014,"rank":1132}},{"id":"city-28","center":{"lng":-101.66815707048853,"lat":21.120318094826796},"radiusKm":17.53094192829304,"totalPopulation":1692644,"memberNodeCount":22,"name":"León de los Aldama","matchedCity":{"name":"León de los Aldama","country":"MX","lat":21.12908,"lon":-101.67374,"pop":1579803,"rank":282}},{"id":"city-29","center":{"lng":-104.95948600225971,"lat":39.71938325563467},"radiusKm":17.29101624734791,"totalPopulation":1624095,"memberNodeCount":25,"name":"Denver","matchedCity":{"name":"Denver","country":"US","lat":39.73915,"lon":-104.9847,"pop":729019,"rank":733}},{"id":"city-30","center":{"lng":-122.37466016129619,"lat":37.77256682719384},"radiusKm":17.28044130121519,"totalPopulation":1621117,"memberNodeCount":21,"name":"San Francisco","matchedCity":{"name":"San Francisco","country":"US","lat":37.77493,"lon":-122.41942,"pop":827526,"rank":651}},{"id":"city-31","center":{"lng":-67.97190834403102,"lat":10.193984397794269},"radiusKm":17.25697968473643,"totalPopulation":1614523,"memberNodeCount":26,"name":"Valencia","matchedCity":{"name":"Valencia","country":"VE","lat":10.16153,"lon":-68.00044,"pop":1619470,"rank":269}},{"id":"city-32","center":{"lng":-121.91824052783085,"lat":37.32729902053077},"radiusKm":17.220214599289285,"totalPopulation":1604226,"memberNodeCount":23,"name":"San Jose","matchedCity":{"name":"San Jose","country":"US","lat":37.33939,"lon":-121.89496,"pop":997368,"rank":536}},{"id":"city-33","center":{"lng":-98.5535579387443,"lat":29.460781438818543},"radiusKm":16.538044354231488,"totalPopulation":1421027,"memberNodeCount":22,"name":"San Antonio","matchedCity":{"name":"San Antonio","country":"US","lat":29.42412,"lon":-98.49363,"pop":1526656,"rank":301}},{"id":"city-34","center":{"lng":-79.48977839922136,"lat":9.045856929820673},"radiusKm":16.449529274780716,"totalPopulation":1398332,"memberNodeCount":18,"name":"Panamá","matchedCity":{"name":"Panamá","country":"PA","lat":8.9936,"lon":-79.51973,"pop":408168,"rank":1357}},{"id":"city-35","center":{"lng":-86.25782968467266,"lat":12.12117446022278},"radiusKm":16.42546481170299,"totalPopulation":1392204,"memberNodeCount":24,"name":"Managua","matchedCity":{"name":"Managua","country":"NI","lat":12.13282,"lon":-86.2504,"pop":973087,"rank":551}},{"id":"city-36","center":{"lng":-83.097041606632,"lat":42.416697370583314},"radiusKm":16.199725425645536,"totalPopulation":1335589,"memberNodeCount":22,"name":"Detroit","matchedCity":{"name":"Detroit","country":"US","lat":42.33143,"lon":-83.04575,"pop":645705,"rank":831}},{"id":"city-37","center":{"lng":-114.07656951999394,"lat":51.05063283239496},"radiusKm":16.191291189514466,"totalPopulation":1333504,"memberNodeCount":23,"name":"Calgary","matchedCity":{"name":"Calgary","country":"CA","lat":51.05011,"lon":-114.08529,"pop":1306784,"rank":376}},{"id":"city-38","center":{"lng":-87.20601194879524,"lat":14.082781093718431},"radiusKm":15.93839999899351,"totalPopulation":1271991,"memberNodeCount":23,"name":"Tegucigalpa","matchedCity":{"name":"Tegucigalpa","country":"HN","lat":14.0818,"lon":-87.20681,"pop":850848,"rank":630}},{"id":"city-39","center":{"lng":-73.1221065011201,"lat":7.098838033669982},"radiusKm":15.656577169937782,"totalPopulation":1205703,"memberNodeCount":17,"name":"Bucaramanga","matchedCity":{"name":"Bucaramanga","country":"CO","lat":7.125,"lon":-73.11895,"pop":581130,"rank":921}},{"id":"city-40","center":{"lng":-122.63250162917367,"lat":45.51900582173529},"radiusKm":15.642085000398952,"totalPopulation":1202358,"memberNodeCount":23,"name":"Portland","matchedCity":{"name":"Portland","country":"US","lat":45.52345,"lon":-122.67621,"pop":652503,"rank":822}},{"id":"city-41","center":{"lng":-67.53188207682133,"lat":10.224264226627193},"radiusKm":15.618071632815015,"totalPopulation":1196829,"memberNodeCount":22,"name":"Maracay","matchedCity":{"name":"Maracay","country":"VE","lat":10.24972,"lon":-67.59475,"pop":464700,"rank":1196}},{"id":"city-42","center":{"lng":-96.82875321205033,"lat":32.88922046848037},"radiusKm":15.589506166707347,"totalPopulation":1190274,"memberNodeCount":19,"name":"Dallas","matchedCity":{"name":"Dallas","country":"US","lat":32.78306,"lon":-96.80667,"pop":1326087,"rank":369}},{"id":"city-43","center":{"lng":-113.49129025341519,"lat":53.53252447356278},"radiusKm":15.530823074095535,"totalPopulation":1176883,"memberNodeCount":21,"name":"Edmonton","matchedCity":{"name":"Edmonton","country":"CA","lat":53.55014,"lon":-113.46871,"pop":1010899,"rank":525}},{"id":"city-44","center":{"lng":-100.41491319913477,"lat":20.60005395353931},"radiusKm":15.515204623990234,"totalPopulation":1173336,"memberNodeCount":17,"name":"Santiago de Querétaro","matchedCity":{"name":"Santiago de Querétaro","country":"MX","lat":20.58806,"lon":-100.38806,"pop":1594212,"rank":279}},{"id":"city-45","center":{"lng":-100.95861439621925,"lat":22.15586209869029},"radiusKm":15.506675408348418,"totalPopulation":1171402,"memberNodeCount":15,"name":"San Luis Potosí","matchedCity":{"name":"San Luis Potosí","country":"MX","lat":22.15234,"lon":-100.97135,"pop":722772,"rank":742}},{"id":"city-46","center":{"lng":-76.61406690793602,"lat":39.3221752858},"radiusKm":15.411969257832155,"totalPopulation":1150070,"memberNodeCount":19,"name":"Baltimore","matchedCity":{"name":"Baltimore","country":"US","lat":39.29038,"lon":-76.61219,"pop":585708,"rank":919}},{"id":"city-47","center":{"lng":-103.43587461606305,"lat":25.55205946648544},"radiusKm":15.385053481069905,"totalPopulation":1144055,"memberNodeCount":15,"name":"Torreón","matchedCity":{"name":"Torreón","country":"MX","lat":25.54389,"lon":-103.41898,"pop":735340,"rank":726}},{"id":"city-48","center":{"lng":-87.98798092356058,"lat":15.494378165127806},"radiusKm":15.372792742564688,"totalPopulation":1141322,"memberNodeCount":18,"name":"San Pedro Sula","matchedCity":{"name":"San Pedro Sula","country":"HN","lat":15.50585,"lon":-88.02588,"pop":801259,"rank":669}},{"id":"city-49","center":{"lng":-81.36644325484261,"lat":28.565901989148912},"radiusKm":15.368413977404385,"totalPopulation":1140347,"memberNodeCount":24,"name":"Orlando","matchedCity":{"name":"Orlando","country":"US","lat":28.53834,"lon":-81.37924,"pop":334854,"rank":1636}},{"id":"city-50","center":{"lng":-121.40359798133562,"lat":38.59357373814923},"radiusKm":15.300264702285197,"totalPopulation":1125244,"memberNodeCount":19,"name":"Sacramento","matchedCity":{"name":"Sacramento","country":"US","lat":38.58157,"lon":-121.4944,"pop":524943,"rank":1038}},{"id":"city-51","center":{"lng":-69.34184752659428,"lat":10.066579016913591},"radiusKm":15.12353322575077,"totalPopulation":1086700,"memberNodeCount":18,"name":"Barquisimeto","matchedCity":{"name":"Barquisimeto","country":"VE","lat":10.0647,"lon":-69.35703,"pop":1240714,"rank":409}},{"id":"city-52","center":{"lng":-89.61788660670007,"lat":20.9669292456533},"radiusKm":15.08871646390443,"totalPopulation":1079212,"memberNodeCount":19,"name":"Mérida","matchedCity":{"name":"Mérida","country":"MX","lat":20.967,"lon":-89.62318,"pop":1201000,"rank":426}},{"id":"city-53","center":{"lng":-122.27287806300038,"lat":47.66792789651126},"radiusKm":15.054852534913714,"totalPopulation":1071962,"memberNodeCount":22,"name":"Seattle","matchedCity":{"name":"Seattle","country":"US","lat":47.60621,"lon":-122.33207,"pop":780995,"rank":685}},{"id":"city-54","center":{"lng":-75.49431082372848,"lat":10.386998766207165},"radiusKm":15.030342970566203,"totalPopulation":1066735,"memberNodeCount":15,"name":"Cartagena","matchedCity":{"name":"Cartagena","country":"CO","lat":10.39817,"lon":-75.49328,"pop":914552,"rank":582}},{"id":"city-55","center":{"lng":-93.24945554823627,"lat":44.94627346489133},"radiusKm":14.905275206206573,"totalPopulation":1040327,"memberNodeCount":19,"name":"Minneapolis","matchedCity":{"name":"Minneapolis","country":"US","lat":44.97997,"lon":-93.26384,"pop":410939,"rank":1347}},{"id":"city-56","center":{"lng":-102.28366189628866,"lat":21.893848401854683},"radiusKm":14.870488122770055,"totalPopulation":1033060,"memberNodeCount":17,"name":"Aguascalientes","matchedCity":{"name":"Aguascalientes","country":"MX","lat":21.88262,"lon":-102.2843,"pop":722250,"rank":743}},{"id":"city-57","center":{"lng":-111.91950002411525,"lat":40.652320056570886},"radiusKm":14.785943889444184,"totalPopulation":1015540,"memberNodeCount":19,"name":"Salt Lake City","matchedCity":{"name":"Salt Lake City","country":"US","lat":40.76078,"lon":-111.89105,"pop":215548,"rank":2578}},{"id":"city-58","center":{"lng":-72.49351186081341,"lat":7.884410066477058},"radiusKm":14.671898925783557,"totalPopulation":992222,"memberNodeCount":16,"name":"Cúcuta","matchedCity":{"name":"Cúcuta","country":"CO","lat":7.90745,"lon":-72.5049,"pop":777106,"rank":687}},{"id":"city-59","center":{"lng":-99.20092695248384,"lat":18.89516501556131},"radiusKm":14.649605839093194,"totalPopulation":987706,"memberNodeCount":16,"name":"Cuernavaca","matchedCity":{"name":"Cuernavaca","country":"MX","lat":18.9261,"lon":-99.23075,"pop":338650,"rank":1626}},{"id":"city-60","center":{"lng":-91.52315432035836,"lat":14.859349268989508},"radiusKm":14.632519287689655,"totalPopulation":984254,"memberNodeCount":17,"name":"Quetzaltenango","matchedCity":{"name":"Quetzaltenango","country":"GT","lat":14.84462,"lon":-91.52316,"pop":180706,"rank":3073}},{"id":"city-61","center":{"lng":-75.69408831767761,"lat":45.406977114741274},"radiusKm":14.502907276365308,"totalPopulation":958330,"memberNodeCount":18,"name":"Ottawa","matchedCity":{"name":"Ottawa","country":"CA","lat":45.41117,"lon":-75.69812,"pop":1017449,"rank":520}},{"id":"city-62","center":{"lng":-70.6841496488821,"lat":19.454395315028638},"radiusKm":14.436851724555934,"totalPopulation":945295,"memberNodeCount":23,"name":"Santiago de los Caballeros","matchedCity":{"name":"Santiago de los Caballeros","country":"DO","lat":19.45036,"lon":-70.69085,"pop":1200000,"rank":428}},{"id":"city-63","center":{"lng":-100.98385527033783,"lat":25.428265738808634},"radiusKm":14.234144854148852,"totalPopulation":906033,"memberNodeCount":11,"name":"Saltillo","matchedCity":{"name":"Saltillo","country":"MX","lat":25.42595,"lon":-100.97963,"pop":709671,"rank":754}},{"id":"city-64","center":{"lng":-115.44896526614458,"lat":32.62092011203687},"radiusKm":14.19575515404983,"totalPopulation":898722,"memberNodeCount":13,"name":"Mexicali","matchedCity":{"name":"Mexicali","country":"MX","lat":32.62781,"lon":-115.45446,"pop":1032686,"rank":502}},{"id":"city-65","center":{"lng":-106.08425729051064,"lat":28.664371239311244},"radiusKm":14.104050358783844,"totalPopulation":881417,"memberNodeCount":12,"name":"Chihuahua","matchedCity":{"name":"Chihuahua","country":"MX","lat":28.63528,"lon":-106.08889,"pop":925762,"rank":575}},{"id":"city-66","center":{"lng":-101.19683396733825,"lat":19.717333984774584},"radiusKm":13.99035189687343,"totalPopulation":860272,"memberNodeCount":13,"name":"Morelia","matchedCity":{"name":"Morelia","country":"MX","lat":19.70078,"lon":-101.18443,"pop":743275,"rank":716}},{"id":"city-67","center":{"lng":-84.2674874113068,"lat":33.87248633027791},"radiusKm":13.9592481305099,"totalPopulation":854547,"memberNodeCount":19,"name":"Sandy Springs","matchedCity":{"name":"Sandy Springs","country":"US","lat":33.92427,"lon":-84.37854,"pop":105330,"rank":5208}},{"id":"city-68","center":{"lng":-110.98233983388423,"lat":29.09355879044073},"radiusKm":13.921986035129015,"totalPopulation":847722,"memberNodeCount":10,"name":"Hermosillo","matchedCity":{"name":"Hermosillo","country":"MX","lat":29.08874,"lon":-110.96677,"pop":812229,"rank":661}},{"id":"city-69","center":{"lng":-87.97314082532324,"lat":43.04247445946423},"radiusKm":13.920628282909476,"totalPopulation":847474,"memberNodeCount":15,"name":"Milwaukee","matchedCity":{"name":"Milwaukee","country":"US","lat":43.0389,"lon":-87.90647,"pop":563531,"rank":956}},{"id":"city-70","center":{"lng":-82.97434322550721,"lat":40.01347317388618},"radiusKm":13.85482165399608,"totalPopulation":835512,"memberNodeCount":17,"name":"Columbus","matchedCity":{"name":"Columbus","country":"US","lat":39.96118,"lon":-82.99879,"pop":913175,"rank":584}},{"id":"city-71","center":{"lng":-96.16225529374836,"lat":19.167477402429625},"radiusKm":13.80600250526453,"totalPopulation":826711,"memberNodeCount":11,"name":"Veracruz","matchedCity":{"name":"Veracruz","country":"MX","lat":19.18095,"lon":-96.1429,"pop":428323,"rank":1291}},{"id":"city-72","center":{"lng":-86.86313499923361,"lat":21.16391665318224},"radiusKm":13.743361237673778,"totalPopulation":815509,"memberNodeCount":12,"name":"Cancún","matchedCity":{"name":"Cancún","country":"MX","lat":21.17429,"lon":-86.84656,"pop":888797,"rank":606}},{"id":"city-73","center":{"lng":-99.85468000785185,"lat":16.876398572127417},"radiusKm":13.697956832583555,"totalPopulation":807453,"memberNodeCount":12,"name":"Acapulco de Juárez","matchedCity":{"name":"Acapulco de Juárez","country":"MX","lat":16.84942,"lon":-99.90891,"pop":658609,"rank":813}},{"id":"city-74","center":{"lng":-107.40378270098402,"lat":24.791042571374536},"radiusKm":13.463897684639255,"totalPopulation":766765,"memberNodeCount":10,"name":"Culiacán","matchedCity":{"name":"Culiacán","country":"MX","lat":24.80209,"lon":-107.39421,"pop":808416,"rank":663}},{"id":"city-75","center":{"lng":-76.8064937237128,"lat":18.013093728207245},"radiusKm":13.455856552352829,"totalPopulation":765392,"memberNodeCount":19,"name":"Kingston","matchedCity":{"name":"Kingston","country":"JM","lat":17.99702,"lon":-76.79358,"pop":937700,"rank":572}},{"id":"city-76","center":{"lng":-62.72456885304871,"lat":8.288291718147503},"radiusKm":13.430993049178133,"totalPopulation":761157,"memberNodeCount":11,"name":"Ciudad Guayana","matchedCity":{"name":"Ciudad Guayana","country":"VE","lat":8.35122,"lon":-62.64102,"pop":978202,"rank":548}},{"id":"city-77","center":{"lng":-66.06265531148301,"lat":18.388769626698725},"radiusKm":13.405405417647975,"totalPopulation":756815,"memberNodeCount":20,"name":"San Juan","matchedCity":{"name":"San Juan","country":"PR","lat":18.46633,"lon":-66.10572,"pop":418140,"rank":1324}},{"id":"city-78","center":{"lng":-90.30526542939121,"lat":38.64065533323182},"radiusKm":13.357040173234441,"totalPopulation":748653,"memberNodeCount":17,"name":"St. Louis","matchedCity":{"name":"St. Louis","country":"US","lat":38.62727,"lon":-90.19789,"pop":279695,"rank":1967}},{"id":"city-79","center":{"lng":-97.86748094412933,"lat":22.2929227253537},"radiusKm":13.341935195291546,"totalPopulation":746116,"memberNodeCount":10,"name":"Tampico","matchedCity":{"name":"Tampico","country":"MX","lat":22.28519,"lon":-97.87777,"pop":309003,"rank":1776}},{"id":"city-80","center":{"lng":-119.77153410257384,"lat":36.789909503573426},"radiusKm":13.288024413144397,"totalPopulation":737108,"memberNodeCount":14,"name":"Fresno","matchedCity":{"name":"Fresno","country":"US","lat":36.74773,"lon":-119.77237,"pop":542107,"rank":1003}},{"id":"city-81","center":{"lng":-97.14745080364087,"lat":49.88581806769002},"radiusKm":13.286527983531268,"totalPopulation":736859,"memberNodeCount":13,"name":"Winnipeg","matchedCity":{"name":"Winnipeg","country":"CA","lat":49.8844,"lon":-97.14704,"pop":749607,"rank":708}},{"id":"city-82","center":{"lng":-93.10486828728278,"lat":16.750194272154907},"radiusKm":13.285295730203664,"totalPopulation":736654,"memberNodeCount":14,"name":"Tuxtla","matchedCity":{"name":"Tuxtla","country":"MX","lat":16.75357,"lon":-93.11578,"pop":604147,"rank":888}},{"id":"city-83","center":{"lng":-64.65542623222728,"lat":10.173016805750311},"radiusKm":13.281122404086869,"totalPopulation":735960,"memberNodeCount":14,"name":"Barcelona","matchedCity":{"name":"Barcelona","country":"VE","lat":10.1384,"lon":-64.68769,"pop":815141,"rank":659}},{"id":"city-84","center":{"lng":-98.7354587084967,"lat":20.087674249794247},"radiusKm":13.16528235472462,"totalPopulation":716870,"memberNodeCount":13,"name":"Pachuca de Soto","matchedCity":{"name":"Pachuca de Soto","country":"MX","lat":20.11697,"lon":-98.73329,"pop":256584,"rank":2159}},{"id":"city-85","center":{"lng":-96.91726404067909,"lat":19.536843901831677},"radiusKm":13.165037484158068,"totalPopulation":716830,"memberNodeCount":12,"name":"Xalapa de Enríquez","matchedCity":{"name":"Xalapa de Enríquez","country":"MX","lat":19.53124,"lon":-96.91589,"pop":424755,"rank":1301}},{"id":"city-86","center":{"lng":-99.52070250490573,"lat":27.493531839608476},"radiusKm":12.97311155341644,"totalPopulation":685934,"memberNodeCount":11,"name":"Nuevo Laredo","matchedCity":{"name":"Nuevo Laredo","country":"MX","lat":27.47629,"lon":-99.51639,"pop":416055,"rank":1328}},{"id":"city-87","center":{"lng":-76.20375137178316,"lat":36.840681916479426},"radiusKm":12.958329921290547,"totalPopulation":683592,"memberNodeCount":17,"name":"Norfolk","matchedCity":{"name":"Norfolk","country":"US","lat":36.84681,"lon":-76.28522,"pop":238005,"rank":2338}},{"id":"city-88","center":{"lng":-80.78726779365965,"lat":35.21329133446412},"radiusKm":12.956535149233542,"totalPopulation":683308,"memberNodeCount":18,"name":"Charlotte","matchedCity":{"name":"Charlotte","country":"US","lat":35.22709,"lon":-80.84313,"pop":911311,"rank":586}},{"id":"city-89","center":{"lng":-96.7334827731277,"lat":17.064476751613356},"radiusKm":12.95097072390465,"totalPopulation":682428,"memberNodeCount":13,"name":"Oaxaca","matchedCity":{"name":"Oaxaca","country":"MX","lat":17.06025,"lon":-96.72544,"pop":255029,"rank":2168}},{"id":"city-90","center":{"lng":-97.49745791159692,"lat":25.868577539047727},"radiusKm":12.885470301543075,"totalPopulation":672126,"memberNodeCount":11,"name":"Heroica Matamoros","matchedCity":{"name":"Heroica Matamoros","country":"MX","lat":25.87972,"lon":-97.50417,"pop":510739,"rank":1076}},{"id":"city-91","center":{"lng":-82.48075015222628,"lat":28.02509905282767},"radiusKm":12.85748349309039,"totalPopulation":667756,"memberNodeCount":15,"name":"Tampa","matchedCity":{"name":"Tampa","country":"US","lat":27.94752,"lon":-82.45843,"pop":414547,"rank":1334}},{"id":"city-92","center":{"lng":-71.26238007183129,"lat":46.82428120979255},"radiusKm":12.833691955309536,"totalPopulation":664056,"memberNodeCount":12,"name":"Québec","matchedCity":{"name":"Québec","country":"CA","lat":46.81228,"lon":-71.21454,"pop":531902,"rank":1023}},{"id":"city-93","center":{"lng":-92.94427929830584,"lat":17.987201915777945},"radiusKm":12.814989142520707,"totalPopulation":661157,"memberNodeCount":12,"name":"Villahermosa","matchedCity":{"name":"Villahermosa","country":"MX","lat":17.98625,"lon":-92.93928,"pop":353577,"rank":1549}},{"id":"city-94","center":{"lng":-79.97648417614221,"lat":40.43662937410961},"radiusKm":12.710270479503079,"totalPopulation":645081,"memberNodeCount":14,"name":"Pittsburgh","matchedCity":{"name":"Pittsburgh","country":"US","lat":40.44062,"lon":-79.99589,"pop":304391,"rank":1804}},{"id":"city-95","center":{"lng":-97.72751957509779,"lat":30.40841099357809},"radiusKm":12.627244437433383,"totalPopulation":632522,"memberNodeCount":12,"name":"Round Rock","matchedCity":{"name":"Round Rock","country":"US","lat":30.50826,"lon":-97.6789,"pop":115997,"rank":4769}},{"id":"city-96","center":{"lng":-104.64885534638229,"lat":24.024180024633633},"radiusKm":12.556255767152267,"totalPopulation":621914,"memberNodeCount":9,"name":"Victoria de Durango","matchedCity":{"name":"Victoria de Durango","country":"MX","lat":24.02032,"lon":-104.65756,"pop":518709,"rank":1055}},{"id":"city-97","center":{"lng":-98.26207671524314,"lat":26.130935711370707},"radiusKm":12.533068851896692,"totalPopulation":618475,"memberNodeCount":11,"name":"Reynosa","matchedCity":{"name":"Reynosa","country":"MX","lat":26.08005,"lon":-98.28456,"pop":589466,"rank":915}},{"id":"city-98","center":{"lng":-106.61033466179292,"lat":35.106470056332725},"radiusKm":12.52342229547221,"totalPopulation":617048,"memberNodeCount":11,"name":"Albuquerque","matchedCity":{"name":"Albuquerque","country":"US","lat":35.08449,"lon":-106.65114,"pop":564559,"rank":951}},{"id":"city-99","center":{"lng":-110.91660315795609,"lat":32.22430095351721},"radiusKm":12.46829362940775,"totalPopulation":608935,"memberNodeCount":12,"name":"Tucson","matchedCity":{"name":"Tucson","country":"US","lat":32.22174,"lon":-110.92648,"pop":542629,"rank":998}},{"id":"city-100","center":{"lng":-101.3537801530017,"lat":20.671884800835155},"radiusKm":12.417767015932762,"totalPopulation":601562,"memberNodeCount":12,"name":"Irapuato","matchedCity":{"name":"Irapuato","country":"MX","lat":20.67675,"lon":-101.35628,"pop":380941,"rank":1433}},{"id":"city-101","center":{"lng":-119.02890431652555,"lat":35.35439953759158},"radiusKm":12.391412528196481,"totalPopulation":597740,"memberNodeCount":13,"name":"Bakersfield","matchedCity":{"name":"Bakersfield","country":"US","lat":35.37329,"lon":-119.01871,"pop":373640,"rank":1453}},{"id":"city-102","center":{"lng":-63.18377057468118,"lat":9.740653643157264},"radiusKm":12.375762018823325,"totalPopulation":595478,"memberNodeCount":12,"name":"Maturín","matchedCity":{"name":"Maturín","country":"VE","lat":9.74569,"lon":-63.18323,"pop":647459,"rank":829}},{"id":"city-103","center":{"lng":-94.64902667339354,"lat":38.97608277332982},"radiusKm":12.349234706572595,"totalPopulation":591657,"memberNodeCount":14,"name":"Overland Park","matchedCity":{"name":"Overland Park","country":"US","lat":38.98223,"lon":-94.67079,"pop":186515,"rank":2997}},{"id":"city-104","center":{"lng":-96.03727745577112,"lat":41.23838504287227},"radiusKm":12.29697227305732,"totalPopulation":584177,"memberNodeCount":14,"name":"Omaha","matchedCity":{"name":"Omaha","country":"US","lat":41.25626,"lon":-95.94043,"pop":486051,"rank":1133}},{"id":"city-105","center":{"lng":-84.51753711191591,"lat":39.146615612597095},"radiusKm":12.282177324051334,"totalPopulation":582071,"memberNodeCount":14,"name":"Cincinnati","matchedCity":{"name":"Cincinnati","country":"US","lat":39.12711,"lon":-84.51439,"pop":311097,"rank":1766}},{"id":"city-106","center":{"lng":-78.67133382962474,"lat":35.817203382425795},"radiusKm":12.277118076356912,"totalPopulation":581352,"memberNodeCount":15,"name":"Raleigh","matchedCity":{"name":"Raleigh","country":"US","lat":35.7721,"lon":-78.63861,"pop":482295,"rank":1145}},{"id":"city-107","center":{"lng":-97.04440706485575,"lat":18.87018715408832},"radiusKm":12.276681617675646,"totalPopulation":581290,"memberNodeCount":12,"name":"Orizaba","matchedCity":{"name":"Orizaba","country":"MX","lat":18.85195,"lon":-97.09957,"pop":123182,"rank":4462}},{"id":"city-108","center":{"lng":-80.11362475624657,"lat":26.623724377516744},"radiusKm":12.235054461369932,"totalPopulation":575397,"memberNodeCount":13,"name":"West Palm Beach","matchedCity":{"name":"West Palm Beach","country":"US","lat":26.71534,"lon":-80.05337,"pop":120932,"rank":4549}},{"id":"city-109","center":{"lng":-81.66581478479449,"lat":41.45191396725928},"radiusKm":12.194455117978961,"totalPopulation":569688,"memberNodeCount":12,"name":"Cleveland","matchedCity":{"name":"Cleveland","country":"US","lat":41.4995,"lon":-81.69541,"pop":365379,"rank":1490}},{"id":"city-110","center":{"lng":-78.82406514784638,"lat":42.945433165828085},"radiusKm":12.182556325121046,"totalPopulation":568022,"memberNodeCount":12,"name":"Buffalo","matchedCity":{"name":"Buffalo","country":"US","lat":42.88645,"lon":-78.87837,"pop":258071,"rank":2137}},{"id":"city-111","center":{"lng":-122.05526681483977,"lat":37.620733110518},"radiusKm":12.15294428062325,"totalPopulation":563890,"memberNodeCount":9,"name":"Fremont","matchedCity":{"name":"Fremont","country":"US","lat":37.54827,"lon":-121.98857,"pop":232206,"rank":2399}},{"id":"city-112","center":{"lng":-73.25898646513686,"lat":10.464221742106687},"radiusKm":12.132925456285431,"totalPopulation":561108,"memberNodeCount":6,"name":"Valledupar","matchedCity":{"name":"Valledupar","country":"CO","lat":10.46538,"lon":-73.2531,"pop":490075,"rank":1123}},{"id":"city-113","center":{"lng":-71.41959902119912,"lat":41.826531819023735},"radiusKm":11.929967613177812,"totalPopulation":533418,"memberNodeCount":12,"name":"Providence","matchedCity":{"name":"Providence","country":"US","lat":41.82399,"lon":-71.41283,"pop":190934,"rank":2927}},{"id":"city-114","center":{"lng":-74.19125861598164,"lat":11.22132047129597},"radiusKm":11.874061570970827,"totalPopulation":525954,"memberNodeCount":8,"name":"Santa Marta","matchedCity":{"name":"Santa Marta","country":"CO","lat":11.23855,"lon":-74.19427,"pop":499192,"rank":1106}},{"id":"city-115","center":{"lng":-104.7757287817125,"lat":38.858288860901084},"radiusKm":11.824480602458607,"totalPopulation":519393,"memberNodeCount":12,"name":"Colorado Springs","matchedCity":{"name":"Colorado Springs","country":"US","lat":38.83388,"lon":-104.82136,"pop":456568,"rank":1215}},{"id":"city-116","center":{"lng":-100.81966440535733,"lat":20.53496960076711},"radiusKm":11.788469120795694,"totalPopulation":514662,"memberNodeCount":9,"name":"Celaya","matchedCity":{"name":"Celaya","country":"MX","lat":20.52353,"lon":-100.8157,"pop":340387,"rank":1622}},{"id":"city-117","center":{"lng":-79.85027460466176,"lat":43.22767864686109},"radiusKm":11.774633379145797,"totalPopulation":512852,"memberNodeCount":11,"name":"Hamilton","matchedCity":{"name":"Hamilton","country":"CA","lat":43.25011,"lon":-79.84963,"pop":569353,"rank":942}},{"id":"city-118","center":{"lng":-72.22797946808824,"lat":7.775088245071548},"radiusKm":11.772589662278953,"totalPopulation":512585,"memberNodeCount":11,"name":"San Cristóbal","matchedCity":{"name":"San Cristóbal","country":"VE","lat":7.76593,"lon":-72.23576,"pop":289852,"rank":1888}},{"id":"city-119","center":{"lng":-73.29870585656376,"lat":40.742326697749704},"radiusKm":11.586746073677936,"totalPopulation":488691,"memberNodeCount":11,"name":"Brentwood","matchedCity":{"name":"Brentwood","country":"US","lat":40.78121,"lon":-73.24623,"pop":60664,"rank":9232}},{"id":"city-120","center":{"lng":-104.88424380645657,"lat":21.49506430365825},"radiusKm":11.532800602620645,"totalPopulation":481897,"memberNodeCount":10,"name":"Tepic","matchedCity":{"name":"Tepic","country":"MX","lat":21.50733,"lon":-104.89332,"pop":332863,"rank":1641}},{"id":"city-121","center":{"lng":-122.41380645722931,"lat":47.22734108948769},"radiusKm":11.521213813069865,"totalPopulation":480446,"memberNodeCount":12,"name":"Tacoma","matchedCity":{"name":"Tacoma","country":"US","lat":47.25288,"lon":-122.44429,"pop":222906,"rank":2494}},{"id":"city-122","center":{"lng":-77.62058256228485,"lat":43.16786166579638},"radiusKm":11.50778521583327,"totalPopulation":478768,"memberNodeCount":12,"name":"Rochester","matchedCity":{"name":"Rochester","country":"US","lat":43.15478,"lon":-77.61556,"pop":209802,"rank":2651}},{"id":"city-123","center":{"lng":-82.74880293299687,"lat":27.87824999092797},"radiusKm":11.307004992814585,"totalPopulation":454143,"memberNodeCount":12,"name":"Clearwater","matchedCity":{"name":"Clearwater","country":"US","lat":27.96585,"lon":-82.8001,"pop":117292,"rank":4702}},{"id":"city-124","center":{"lng":-85.7479857434284,"lat":38.2296558364872},"radiusKm":11.241343294781245,"totalPopulation":446277,"memberNodeCount":12,"name":"Louisville","matchedCity":{"name":"Louisville","country":"US","lat":38.25424,"lon":-85.75941,"pop":624444,"rank":859}},{"id":"city-125","center":{"lng":-106.40408107174422,"lat":23.240838181551748},"radiusKm":11.160740775907879,"totalPopulation":436746,"memberNodeCount":7,"name":"Mazatlán","matchedCity":{"name":"Mazatlán","country":"MX","lat":23.22163,"lon":-106.41885,"pop":381583,"rank":1430}},{"id":"city-126","center":{"lng":-77.47938336304486,"lat":37.57944610380862},"radiusKm":11.081903844707085,"totalPopulation":427556,"memberNodeCount":12,"name":"Richmond","matchedCity":{"name":"Richmond","country":"US","lat":37.55376,"lon":-77.46026,"pop":226610,"rank":2450}},{"id":"city-127","center":{"lng":-121.30026487319304,"lat":37.98751896602469},"radiusKm":11.074944493402628,"totalPopulation":426751,"memberNodeCount":10,"name":"Stockton","matchedCity":{"name":"Stockton","country":"US","lat":37.9577,"lon":-121.29078,"pop":305658,"rank":1799}},{"id":"city-128","center":{"lng":-76.2580749194982,"lat":20.881589754733078},"radiusKm":10.993296657312223,"totalPopulation":417382,"memberNodeCount":10,"name":"Holguín","matchedCity":{"name":"Holguín","country":"CU","lat":20.88722,"lon":-76.26306,"pop":319102,"rank":1714}},{"id":"city-129","center":{"lng":-64.16163379411479,"lat":10.449054756305564},"radiusKm":10.962817378058752,"totalPopulation":413920,"memberNodeCount":9,"name":"Cumaná","matchedCity":{"name":"Cumaná","country":"VE","lat":10.4639,"lon":-64.17859,"pop":405626,"rank":1363}},{"id":"city-130","center":{"lng":-81.2520239914362,"lat":42.98242674872413},"radiusKm":10.90818883899739,"totalPopulation":407763,"memberNodeCount":10,"name":"London","matchedCity":{"name":"London","country":"CA","lat":42.98339,"lon":-81.23304,"pop":422324,"rank":1308}},{"id":"city-131","center":{"lng":-109.9435904981131,"lat":27.48230998796876},"radiusKm":10.851647207789403,"totalPopulation":401455,"memberNodeCount":7,"name":"Ciudad Obregón","matchedCity":{"name":"Ciudad Obregón","country":"MX","lat":27.48642,"lon":-109.94079,"pop":329404,"rank":1669}},{"id":"city-132","center":{"lng":-80.50111606325876,"lat":43.444376687608674},"radiusKm":10.688313850194685,"totalPopulation":383599,"memberNodeCount":7,"name":"Kitchener","matchedCity":{"name":"Kitchener","country":"CA","lat":43.42537,"lon":-80.5112,"pop":256885,"rank":2153}},{"id":"city-133","center":{"lng":-157.84301631955043,"lat":21.315224393693846},"radiusKm":10.667310152869922,"totalPopulation":381342,"memberNodeCount":5,"name":"Honolulu","matchedCity":{"name":"Honolulu","country":"US","lat":21.30694,"lon":-157.85833,"pop":350964,"rank":1556}},{"id":"city-134","center":{"lng":-63.55113483458418,"lat":8.089498160723439},"radiusKm":10.65856606199647,"totalPopulation":380405,"memberNodeCount":9,"name":"Ciudad Bolívar","matchedCity":{"name":"Ciudad Bolívar","country":"VE","lat":8.12366,"lon":-63.54694,"pop":412619,"rank":1341}},{"id":"city-135","center":{"lng":-66.57860285587866,"lat":10.464374513420582},"radiusKm":10.609446900426454,"totalPopulation":375170,"memberNodeCount":7,"name":"Guarenas","matchedCity":{"name":"Guarenas","country":"VE","lat":10.47027,"lon":-66.61934,"pop":248588,"rank":2235}},{"id":"city-136","center":{"lng":-75.87681986506493,"lat":8.7478512749768},"radiusKm":10.587494681432522,"totalPopulation":372846,"memberNodeCount":8,"name":"Montería","matchedCity":{"name":"Montería","country":"CO","lat":8.75081,"lon":-75.87823,"pop":490935,"rank":1121}},{"id":"city-137","center":{"lng":-105.22570386779017,"lat":20.66629044479143},"radiusKm":10.57431179651848,"totalPopulation":371455,"memberNodeCount":6,"name":"Puerto Vallarta","matchedCity":{"name":"Puerto Vallarta","country":"MX","lat":20.617,"lon":-105.23018,"pop":224166,"rank":2481}},{"id":"city-138","center":{"lng":-102.05214544316293,"lat":19.412394863799236},"radiusKm":10.558441205530627,"totalPopulation":369785,"memberNodeCount":8,"name":"Uruapan","matchedCity":{"name":"Uruapan","country":"MX","lat":19.41116,"lon":-102.05644,"pop":299523,"rank":1835}},{"id":"city-139","center":{"lng":-117.2880255043304,"lat":33.19755281391102},"radiusKm":10.514688395386306,"totalPopulation":365207,"memberNodeCount":7,"name":"Oceanside","matchedCity":{"name":"Oceanside","country":"US","lat":33.19587,"lon":-117.37948,"pop":175691,"rank":3159}},{"id":"city-140","center":{"lng":-122.03905284796916,"lat":37.95494517622828},"radiusKm":10.490409518076321,"totalPopulation":362683,"memberNodeCount":10,"name":"Concord","matchedCity":{"name":"Concord","country":"US","lat":37.97798,"lon":-122.03107,"pop":128667,"rank":4273}},{"id":"city-141","center":{"lng":-77.91230366707465,"lat":21.38337487546175},"radiusKm":10.48321203222623,"totalPopulation":361937,"memberNodeCount":9,"name":"Camagüey","matchedCity":{"name":"Camagüey","country":"CU","lat":21.38083,"lon":-77.91694,"pop":347562,"rank":1579}},{"id":"city-142","center":{"lng":-99.14697544909846,"lat":23.739628176793893},"radiusKm":10.456370800268967,"totalPopulation":359164,"memberNodeCount":7,"name":"Ciudad Victoria","matchedCity":{"name":"Ciudad Victoria","country":"MX","lat":23.74061,"lon":-99.14364,"pop":332100,"rank":1648}},{"id":"city-143","center":{"lng":-75.38152027756561,"lat":9.298099885734516},"radiusKm":10.452118561369565,"totalPopulation":358726,"memberNodeCount":8,"name":"Sincelejo","matchedCity":{"name":"Sincelejo","country":"CO","lat":9.3045,"lon":-75.3905,"pop":277773,"rank":1979}},{"id":"city-144","center":{"lng":-61.423546265195306,"lat":10.642261164373311},"radiusKm":10.40737718638161,"totalPopulation":354139,"memberNodeCount":10},{"id":"city-145","center":{"lng":-116.59489705258142,"lat":31.860660090940293},"radiusKm":10.391680012626592,"totalPopulation":352539,"memberNodeCount":6,"name":"Ensenada","matchedCity":{"name":"Ensenada","country":"MX","lat":31.87149,"lon":-116.60071,"pop":443807,"rank":1249}},{"id":"city-146","center":{"lng":-120.9798786207572,"lat":37.653187890934085},"radiusKm":10.387354966079332,"totalPopulation":352099,"memberNodeCount":8,"name":"Modesto","matchedCity":{"name":"Modesto","country":"US","lat":37.6391,"lon":-120.99688,"pop":211266,"rank":2631}},{"id":"city-147","center":{"lng":-117.47574212329506,"lat":34.037052939330366},"radiusKm":10.384158015234807,"totalPopulation":351774,"memberNodeCount":7,"name":"Fontana","matchedCity":{"name":"Fontana","country":"US","lat":34.09223,"lon":-117.43505,"pop":212704,"rank":2611}},{"id":"city-148","center":{"lng":-70.22639500559832,"lat":8.61970580099468},"radiusKm":10.32343646043504,"totalPopulation":345639,"memberNodeCount":8,"name":"Barinas","matchedCity":{"name":"Barinas","country":"VE","lat":8.62064,"lon":-70.23105,"pop":397279,"rank":1386}},{"id":"city-149","center":{"lng":-72.58081271529309,"lat":42.12453503549051},"radiusKm":10.303226278144416,"totalPopulation":343613,"memberNodeCount":10,"name":"Springfield","matchedCity":{"name":"Springfield","country":"US","lat":42.10148,"lon":-72.58981,"pop":154341,"rank":3572}},{"id":"city-150","center":{"lng":-72.21159473169135,"lat":19.72963177157372},"radiusKm":10.26042004420531,"totalPopulation":339348,"memberNodeCount":10,"name":"Cap-Haïtien","matchedCity":{"name":"Cap-Haïtien","country":"HT","lat":19.75938,"lon":-72.19815,"pop":134815,"rank":4065}},{"id":"city-151","center":{"lng":-103.73031807905541,"lat":19.252515753755734},"radiusKm":10.259744736074628,"totalPopulation":339281,"memberNodeCount":8,"name":"Colima","matchedCity":{"name":"Colima","country":"MX","lat":19.24473,"lon":-103.7127,"pop":146965,"rank":3732}},{"id":"city-152","center":{"lng":-72.67351834551043,"lat":19.461772551161552},"radiusKm":10.250250777649406,"totalPopulation":338340,"memberNodeCount":10,"name":"Gonaïves","matchedCity":{"name":"Gonaïves","country":"HT","lat":19.44755,"lon":-72.68928,"pop":84961,"rank":6534}},{"id":"city-153","center":{"lng":-102.5381095160387,"lat":22.756185005130813},"radiusKm":10.168991405898305,"totalPopulation":330357,"memberNodeCount":6,"name":"Guadalupe","matchedCity":{"name":"Guadalupe","country":"MX","lat":22.74678,"lon":-102.5188,"pop":170029,"rank":3254}},{"id":"city-154","center":{"lng":-94.46075784316047,"lat":18.141815454410217},"radiusKm":10.159100823352974,"totalPopulation":329394,"memberNodeCount":5,"name":"Coatzacoalcos","matchedCity":{"name":"Coatzacoalcos","country":"MX","lat":18.14905,"lon":-94.4447,"pop":310698,"rank":1768}},{"id":"city-155","center":{"lng":-72.92224329554355,"lat":41.31158293135903},"radiusKm":10.158812958482512,"totalPopulation":329366,"memberNodeCount":10,"name":"New Haven","matchedCity":{"name":"New Haven","country":"US","lat":41.30815,"lon":-72.92816,"pop":130322,"rank":4203}},{"id":"city-156","center":{"lng":-85.6592913888506,"lat":42.93367682536183},"radiusKm":10.13030557519405,"totalPopulation":326601,"memberNodeCount":7,"name":"Grand Rapids","matchedCity":{"name":"Grand Rapids","country":"US","lat":42.96336,"lon":-85.66809,"pop":195097,"rank":2876}},{"id":"city-157","center":{"lng":-69.21240661410025,"lat":9.567335025458599},"radiusKm":10.054690868067254,"totalPopulation":319342,"memberNodeCount":9,"name":"Acarigua","matchedCity":{"name":"Acarigua","country":"VE","lat":9.55451,"lon":-69.19564,"pop":188278,"rank":2966}},{"id":"city-158","center":{"lng":-119.7810654230274,"lat":39.54512892699105},"radiusKm":10.035416209545014,"totalPopulation":317509,"memberNodeCount":9,"name":"Reno","matchedCity":{"name":"Reno","country":"US","lat":39.52963,"lon":-119.8138,"pop":264165,"rank":2091}},{"id":"city-159","center":{"lng":-77.31814941759048,"lat":38.64891649923877},"radiusKm":10.032697295552454,"totalPopulation":317251,"memberNodeCount":9,"name":"Dale City","matchedCity":{"name":"Dale City","country":"US","lat":38.63706,"lon":-77.31109,"pop":65969,"rank":8450}},{"id":"city-160","center":{"lng":-84.49658482586197,"lat":38.02076364061211},"radiusKm":10.008700692604965,"totalPopulation":314980,"memberNodeCount":10,"name":"Lexington","matchedCity":{"name":"Lexington","country":"US","lat":37.98869,"lon":-84.47772,"pop":320347,"rank":1708}},{"id":"city-161","center":{"lng":-101.43118976739083,"lat":26.9096440285222},"radiusKm":10.004271322578772,"totalPopulation":314562,"memberNodeCount":7,"name":"Monclova","matchedCity":{"name":"Monclova","country":"MX","lat":26.90687,"lon":-101.42056,"pop":215271,"rank":2583}},{"id":"city-162","center":{"lng":-79.72920346596291,"lat":43.42592341560492},"radiusKm":9.993584430338748,"totalPopulation":313555,"memberNodeCount":7,"name":"Oakville","matchedCity":{"name":"Oakville","country":"CA","lat":43.45011,"lon":-79.68292,"pop":213759,"rank":2600}},{"id":"city-163","center":{"lng":-72.86326986257455,"lat":18.42270268758701},"radiusKm":9.989683915971513,"totalPopulation":313188,"memberNodeCount":8,"name":"Tigwav","matchedCity":{"name":"Tigwav","country":"HT","lat":18.43117,"lon":-72.86521,"pop":117504,"rank":4693}},{"id":"city-164","center":{"lng":-72.69722323730332,"lat":41.7558857283165},"radiusKm":9.984279807569395,"totalPopulation":312680,"memberNodeCount":7,"name":"Hartford","matchedCity":{"name":"Hartford","country":"US","lat":41.76371,"lon":-72.68509,"pop":121054,"rank":4541}},{"id":"city-165","center":{"lng":-73.0763739215756,"lat":40.85613098983064},"radiusKm":9.946715165344504,"totalPopulation":309164,"memberNodeCount":7},{"id":"city-166","center":{"lng":-92.26955709663432,"lat":14.896453970517797},"radiusKm":9.944956066815037,"totalPopulation":309000,"memberNodeCount":8,"name":"Tapachula","matchedCity":{"name":"Tapachula","country":"MX","lat":14.90541,"lon":-92.25891,"pop":353706,"rank":1547}},{"id":"city-167","center":{"lng":-116.28015859466556,"lat":43.614727790178065},"radiusKm":9.930979164071951,"totalPopulation":307699,"memberNodeCount":7,"name":"Boise","matchedCity":{"name":"Boise","country":"US","lat":43.6135,"lon":-116.20345,"pop":235684,"rank":2362}},{"id":"city-168","center":{"lng":-79.75624869325615,"lat":8.893046309315332},"radiusKm":9.925758631733174,"totalPopulation":307214,"memberNodeCount":8,"name":"La Chorrera","matchedCity":{"name":"La Chorrera","country":"PA","lat":8.87763,"lon":-79.78007,"pop":61232,"rank":9136}},{"id":"city-169","center":{"lng":-97.44963190010748,"lat":20.52985772566418},"radiusKm":9.903891186919704,"totalPopulation":305188,"memberNodeCount":7,"name":"Poza Rica de Hidalgo","matchedCity":{"name":"Poza Rica de Hidalgo","country":"MX","lat":20.53315,"lon":-97.45946,"pop":185242,"rank":3012}},{"id":"city-170","center":{"lng":-90.17141306608002,"lat":29.983000215363397},"radiusKm":9.8970391236247,"totalPopulation":304555,"memberNodeCount":7,"name":"New Orleans","matchedCity":{"name":"New Orleans","country":"US","lat":29.95465,"lon":-90.07507,"pop":362701,"rank":1504}},{"id":"city-171","center":{"lng":-91.4821289524926,"lat":14.554505900532602},"radiusKm":9.896898302492994,"totalPopulation":304542,"memberNodeCount":7,"name":"Mazatenango","matchedCity":{"name":"Mazatenango","country":"GT","lat":14.53412,"lon":-91.50311,"pop":77431,"rank":7161}},{"id":"city-172","center":{"lng":-108.99724536980318,"lat":25.7902507004206},"radiusKm":9.876480182749699,"totalPopulation":302661,"memberNodeCount":7,"name":"Los Mochis","matchedCity":{"name":"Los Mochis","country":"MX","lat":25.79097,"lon":-108.99825,"pop":256613,"rank":2157}},{"id":"city-173","center":{"lng":-75.45962357140253,"lat":40.606656984084886},"radiusKm":9.865612599291412,"totalPopulation":301663,"memberNodeCount":7,"name":"Allentown","matchedCity":{"name":"Allentown","country":"US","lat":40.60843,"lon":-75.49018,"pop":120207,"rank":4567}},{"id":"city-174","center":{"lng":-71.18357566037038,"lat":8.578117370468714},"radiusKm":9.824430004171465,"totalPopulation":297901,"memberNodeCount":7,"name":"Mérida","matchedCity":{"name":"Mérida","country":"VE","lat":8.57899,"lon":-71.16922,"pop":300000,"rank":1830}},{"id":"city-175","center":{"lng":-97.59259310744486,"lat":35.525529059731234},"radiusKm":9.81522027647074,"totalPopulation":297064,"memberNodeCount":7,"name":"Oklahoma City","matchedCity":{"name":"Oklahoma City","country":"US","lat":35.46756,"lon":-97.51643,"pop":681054,"rank":787}},{"id":"city-176","center":{"lng":-64.22173231187844,"lat":8.85196633975381},"radiusKm":9.803841067781336,"totalPopulation":296032,"memberNodeCount":9,"name":"El Tigre","matchedCity":{"name":"El Tigre","country":"VE","lat":8.88902,"lon":-64.2527,"pop":222450,"rank":2500}},{"id":"city-177","center":{"lng":-98.95224929427188,"lat":18.829055354015722},"radiusKm":9.79494647018905,"totalPopulation":295227,"memberNodeCount":7,"name":"Cuautla","matchedCity":{"name":"Cuautla","country":"MX","lat":18.8106,"lon":-98.93525,"pop":157336,"rank":3494}},{"id":"city-178","center":{"lng":-119.17900689224356,"lat":34.19584262599289},"radiusKm":9.776786751435228,"totalPopulation":293588,"memberNodeCount":7,"name":"Oxnard","matchedCity":{"name":"Oxnard","country":"US","lat":34.1975,"lon":-119.17705,"pop":207254,"rank":2681}},{"id":"city-179","center":{"lng":-86.11342451257309,"lat":39.77548076328486},"radiusKm":9.773422188303396,"totalPopulation":293285,"memberNodeCount":7,"name":"Indianapolis","matchedCity":{"name":"Indianapolis","country":"US","lat":39.76838,"lon":-86.15804,"pop":887642,"rank":607}},{"id":"city-180","center":{"lng":-72.90313449814023,"lat":18.81259404380749},"radiusKm":9.76782055043414,"totalPopulation":292781,"memberNodeCount":7},{"id":"city-181","center":{"lng":-81.39126684669469,"lat":28.334714125682684},"radiusKm":9.757589882416982,"totalPopulation":291862,"memberNodeCount":9,"name":"Kissimmee","matchedCity":{"name":"Kissimmee","country":"US","lat":28.30468,"lon":-81.41667,"pop":69152,"rank":8060}},{"id":"city-182","center":{"lng":-106.64050356463795,"lat":52.12679213947798},"radiusKm":9.710839769456083,"totalPopulation":287687,"memberNodeCount":7,"name":"Saskatoon","matchedCity":{"name":"Saskatoon","country":"CA","lat":52.13238,"lon":-106.66892,"pop":266141,"rank":2067}},{"id":"city-183","center":{"lng":-117.14702395739245,"lat":33.554718705753835},"radiusKm":9.697713891020319,"totalPopulation":286522,"memberNodeCount":7,"name":"Temecula","matchedCity":{"name":"Temecula","country":"US","lat":33.49364,"lon":-117.14836,"pop":110003,"rank":5022}},{"id":"city-184","center":{"lng":-79.96479628135872,"lat":22.40407710418633},"radiusKm":9.66885875109668,"totalPopulation":283972,"memberNodeCount":7,"name":"Santa Clara","matchedCity":{"name":"Santa Clara","country":"CU","lat":22.40711,"lon":-79.96581,"pop":250512,"rank":2215}},{"id":"city-185","center":{"lng":-110.94311537392248,"lat":31.298930844297892},"radiusKm":9.667689606623574,"totalPopulation":283869,"memberNodeCount":5,"name":"Nogales","matchedCity":{"name":"Nogales","country":"MX","lat":31.30862,"lon":-110.94217,"pop":264782,"rank":2081}},{"id":"city-186","center":{"lng":-73.18667285359118,"lat":41.194455837070834},"radiusKm":9.659702349673992,"totalPopulation":283166,"memberNodeCount":6,"name":"Bridgeport","matchedCity":{"name":"Bridgeport","country":"US","lat":41.17923,"lon":-73.18945,"pop":147629,"rank":3722}},{"id":"city-187","center":{"lng":-95.91141234775388,"lat":36.072085018671935},"radiusKm":9.658326254017853,"totalPopulation":283045,"memberNodeCount":7},{"id":"city-188","center":{"lng":-111.67996805640708,"lat":40.26945823106296},"radiusKm":9.641006259199555,"totalPopulation":281525,"memberNodeCount":7,"name":"Provo","matchedCity":{"name":"Provo","country":"US","lat":40.23384,"lon":-111.65853,"pop":115162,"rank":4809}},{"id":"city-189","center":{"lng":-97.32226045105133,"lat":37.676315856610664},"radiusKm":9.614048114946229,"totalPopulation":279170,"memberNodeCount":7,"name":"Wichita","matchedCity":{"name":"Wichita","country":"US","lat":37.69224,"lon":-97.33754,"pop":396119,"rank":1387}},{"id":"city-190","center":{"lng":-97.39925808932126,"lat":18.460230757329725},"radiusKm":9.59759305538386,"totalPopulation":277739,"memberNodeCount":6,"name":"Tehuacán","matchedCity":{"name":"Tehuacán","country":"MX","lat":18.46422,"lon":-97.39735,"pop":248716,"rank":2234}},{"id":"city-191","center":{"lng":-72.7818540043453,"lat":19.92423438723928},"radiusKm":9.579370420186855,"totalPopulation":276160,"memberNodeCount":8,"name":"Port-de-Paix","matchedCity":{"name":"Port-de-Paix","country":"HT","lat":19.93984,"lon":-72.83037,"pop":306217,"rank":1795}},{"id":"city-192","center":{"lng":-69.30104708013155,"lat":18.47466111981839},"radiusKm":9.574731577589505,"totalPopulation":275759,"memberNodeCount":8,"name":"San Pedro de Macorís","matchedCity":{"name":"San Pedro de Macorís","country":"DO","lat":18.4539,"lon":-69.30864,"pop":217899,"rank":2550}},{"id":"city-193","center":{"lng":-87.07682877450357,"lat":20.649922027213893},"radiusKm":9.571976222350763,"totalPopulation":275521,"memberNodeCount":5,"name":"Playa del Carmen","matchedCity":{"name":"Playa del Carmen","country":"MX","lat":20.6274,"lon":-87.07987,"pop":149923,"rank":3661}},{"id":"city-194","center":{"lng":-68.9918676585246,"lat":18.434816230215404},"radiusKm":9.535357879131587,"totalPopulation":272371,"memberNodeCount":8,"name":"La Romana","matchedCity":{"name":"La Romana","country":"DO","lat":18.42332,"lon":-68.96635,"pop":208437,"rank":2662}},{"id":"city-195","center":{"lng":-110.31208257944725,"lat":24.122789331568864},"radiusKm":9.518196080036686,"totalPopulation":270903,"memberNodeCount":5,"name":"La Paz","matchedCity":{"name":"La Paz","country":"MX","lat":24.14231,"lon":-110.31316,"pop":250141,"rank":2219}},{"id":"city-196","center":{"lng":-66.69804855243999,"lat":10.26610226429527},"radiusKm":9.51481019724302,"totalPopulation":270614,"memberNodeCount":9,"name":"Santa Teresa del Tuy","matchedCity":{"name":"Santa Teresa del Tuy","country":"VE","lat":10.23291,"lon":-66.66474,"pop":278890,"rank":1973}},{"id":"city-197","center":{"lng":-63.844447229239464,"lat":10.9851147401232},"radiusKm":9.509110850886684,"totalPopulation":270128,"memberNodeCount":8,"name":"Porlamar","matchedCity":{"name":"Porlamar","country":"VE","lat":10.95771,"lon":-63.86971,"pop":216234,"rank":2567}},{"id":"city-198","center":{"lng":-83.60394239034065,"lat":41.68319684464047},"radiusKm":9.45724546006492,"totalPopulation":265732,"memberNodeCount":7,"name":"Toledo","matchedCity":{"name":"Toledo","country":"US","lat":41.66394,"lon":-83.55521,"pop":265638,"rank":2072}},{"id":"city-199","center":{"lng":-98.45849116612764,"lat":19.282475438013233},"radiusKm":9.45564366526938,"totalPopulation":265597,"memberNodeCount":7,"name":"San Martin Texmelucan de Labastida","matchedCity":{"name":"San Martin Texmelucan de Labastida","country":"MX","lat":19.28431,"lon":-98.43885,"pop":155738,"rank":3534}},{"id":"city-200","center":{"lng":-123.36263520308142,"lat":48.448630592593986},"radiusKm":9.4540175851798,"totalPopulation":265460,"memberNodeCount":7,"name":"Victoria","matchedCity":{"name":"Victoria","country":"CA","lat":48.4359,"lon":-123.35155,"pop":289625,"rank":1890}},{"id":"city-201","center":{"lng":-71.43812915297413,"lat":10.393087247552703},"radiusKm":9.448387265273581,"totalPopulation":264986,"memberNodeCount":8,"name":"Cabimas","matchedCity":{"name":"Cabimas","country":"VE","lat":10.39907,"lon":-71.45206,"pop":351736,"rank":1555}},{"id":"city-202","center":{"lng":-63.59035014133132,"lat":44.66278703951729},"radiusKm":9.38311444918308,"totalPopulation":259532,"memberNodeCount":6,"name":"Halifax","matchedCity":{"name":"Halifax","country":"CA","lat":44.64269,"lon":-63.57688,"pop":471559,"rank":1175}},{"id":"city-203","center":{"lng":-109.93779805784982,"lat":22.910117978841075},"radiusKm":9.382306940829247,"totalPopulation":259465,"memberNodeCount":4,"name":"Cabo San Lucas","matchedCity":{"name":"Cabo San Lucas","country":"MX","lat":22.89088,"lon":-109.91238,"pop":202694,"rank":2736}},{"id":"city-204","center":{"lng":-102.29458067816596,"lat":19.986089293614192},"radiusKm":9.372871696077839,"totalPopulation":258683,"memberNodeCount":5,"name":"Zamora","matchedCity":{"name":"Zamora","country":"MX","lat":19.9855,"lon":-102.28387,"pop":186102,"rank":3005}},{"id":"city-205","center":{"lng":-81.61268254304964,"lat":30.317320821257724},"radiusKm":9.364107184799026,"totalPopulation":257958,"memberNodeCount":8,"name":"Jacksonville","matchedCity":{"name":"Jacksonville","country":"US","lat":30.33218,"lon":-81.65565,"pop":1009833,"rank":527}},{"id":"city-206","center":{"lng":-70.2020426077041,"lat":11.68050468507982},"radiusKm":9.351942688573974,"totalPopulation":256954,"memberNodeCount":5,"name":"Punto Fijo","matchedCity":{"name":"Punto Fijo","country":"VE","lat":11.69152,"lon":-70.19918,"pop":141729,"rank":3864}},{"id":"city-207","center":{"lng":-117.39294192324861,"lat":47.671553795500785},"radiusKm":9.305624964074608,"totalPopulation":253155,"memberNodeCount":7,"name":"Spokane","matchedCity":{"name":"Spokane","country":"US","lat":47.65966,"lon":-117.42908,"pop":229447,"rank":2417}},{"id":"city-208","center":{"lng":-90.51441675198802,"lat":19.836601269578907},"radiusKm":9.302340035791712,"totalPopulation":252887,"memberNodeCount":5,"name":"Campeche","matchedCity":{"name":"Campeche","country":"MX","lat":19.84073,"lon":-90.51676,"pop":220389,"rank":2525}},{"id":"city-209","center":{"lng":-72.90883792605395,"lat":11.526874019786597},"radiusKm":9.295038699766366,"totalPopulation":252292,"memberNodeCount":7,"name":"Riohacha","matchedCity":{"name":"Riohacha","country":"CO","lat":11.54444,"lon":-72.90722,"pop":188014,"rank":2971}},{"id":"city-210","center":{"lng":-86.09045488935016,"lat":11.954604701824849},"radiusKm":9.291033435089481,"totalPopulation":251966,"memberNodeCount":7,"name":"Masaya","matchedCity":{"name":"Masaya","country":"NI","lat":11.97316,"lon":-86.09587,"pop":130113,"rank":4215}},{"id":"city-211","center":{"lng":-79.81528674598385,"lat":36.08102039931232},"radiusKm":9.289705775786434,"totalPopulation":251858,"memberNodeCount":7,"name":"Greensboro","matchedCity":{"name":"Greensboro","country":"US","lat":36.07264,"lon":-79.79198,"pop":285342,"rank":1925}},{"id":"city-212","center":{"lng":-73.5029089435207,"lat":41.08700121860655},"radiusKm":9.275804042074009,"totalPopulation":250729,"memberNodeCount":8,"name":"Stamford","matchedCity":{"name":"Stamford","country":"US","lat":41.05343,"lon":-73.53873,"pop":128874,"rank":4268}},{"id":"city-213","center":{"lng":-98.36183194599651,"lat":20.094079068522653},"radiusKm":9.229389667361605,"totalPopulation":246984,"memberNodeCount":7,"name":"Tulancingo","matchedCity":{"name":"Tulancingo","country":"MX","lat":20.08355,"lon":-98.36288,"pop":102406,"rank":5377}},{"id":"city-214","center":{"lng":-101.90582429517536,"lat":33.55113599241954},"radiusKm":9.22239648458941,"totalPopulation":246423,"memberNodeCount":7,"name":"Lubbock","matchedCity":{"name":"Lubbock","country":"US","lat":33.57786,"lon":-101.85517,"pop":249042,"rank":2231}},{"id":"city-215","center":{"lng":-84.15776542210693,"lat":39.73626317518667},"radiusKm":9.192245693805427,"totalPopulation":244014,"memberNodeCount":7,"name":"Dayton","matchedCity":{"name":"Dayton","country":"US","lat":39.75895,"lon":-84.19161,"pop":135512,"rank":4046}},{"id":"city-216","center":{"lng":-89.99504314969376,"lat":35.121812983545},"radiusKm":9.191291263302164,"totalPopulation":243938,"memberNodeCount":7,"name":"Memphis","matchedCity":{"name":"Memphis","country":"US","lat":35.14953,"lon":-90.04898,"pop":633104,"rank":846}},{"id":"city-217","center":{"lng":-77.33522105679954,"lat":25.04347419123195},"radiusKm":9.190060257618844,"totalPopulation":243840,"memberNodeCount":7,"name":"Nassau","matchedCity":{"name":"Nassau","country":"BS","lat":25.05823,"lon":-77.34306,"pop":227940,"rank":2433}},{"id":"city-218","center":{"lng":-104.61033384561314,"lat":50.45210924759118},"radiusKm":9.18291894556487,"totalPopulation":243272,"memberNodeCount":6,"name":"Regina","matchedCity":{"name":"Regina","country":"CA","lat":50.45008,"lon":-104.6178,"pop":226404,"rank":2456}},{"id":"city-219","center":{"lng":-73.77123259529748,"lat":42.67850526362664},"radiusKm":9.159329099514785,"totalPopulation":241402,"memberNodeCount":7,"name":"Albany","matchedCity":{"name":"Albany","country":"US","lat":42.65258,"lon":-73.75623,"pop":101228,"rank":5440}},{"id":"city-220","center":{"lng":-116.25853282644381,"lat":33.71257508949387},"radiusKm":9.149567547909031,"totalPopulation":240631,"memberNodeCount":7,"name":"Indio","matchedCity":{"name":"Indio","country":"US","lat":33.7207,"lon":-116.21677,"pop":87533,"rank":6332}},{"id":"city-221","center":{"lng":-91.1773138774417,"lat":14.784340945968564},"radiusKm":9.128492194183417,"totalPopulation":238972,"memberNodeCount":7},{"id":"city-222","center":{"lng":-94.57299291307532,"lat":17.9921643564058},"radiusKm":9.127384288631754,"totalPopulation":238885,"memberNodeCount":7,"name":"Minatitlán","matchedCity":{"name":"Minatitlán","country":"MX","lat":18.00011,"lon":-94.5569,"pop":112046,"rank":4930}},{"id":"city-223","center":{"lng":-99.50418942888012,"lat":17.542415516428385},"radiusKm":9.126225157027045,"totalPopulation":238794,"memberNodeCount":4,"name":"Chilpancingo","matchedCity":{"name":"Chilpancingo","country":"MX","lat":17.55228,"lon":-99.50124,"pop":187251,"rank":2984}},{"id":"city-224","center":{"lng":-76.13314908951266,"lat":43.05040169607333},"radiusKm":9.11951934445988,"totalPopulation":238268,"memberNodeCount":7,"name":"Syracuse","matchedCity":{"name":"Syracuse","country":"US","lat":43.04812,"lon":-76.14742,"pop":144142,"rank":3801}},{"id":"city-225","center":{"lng":-71.80126175937167,"lat":42.26507676467976},"radiusKm":9.096022280395367,"totalPopulation":236431,"memberNodeCount":6,"name":"Worcester","matchedCity":{"name":"Worcester","country":"US","lat":42.26259,"lon":-71.80229,"pop":206518,"rank":2688}},{"id":"city-226","center":{"lng":-76.94874082909921,"lat":20.958757450705356},"radiusKm":9.090222103507193,"totalPopulation":235979,"memberNodeCount":5,"name":"Las Tunas","matchedCity":{"name":"Las Tunas","country":"CU","lat":20.96135,"lon":-76.95192,"pop":203684,"rank":2724}},{"id":"city-227","center":{"lng":-90.36334083313604,"lat":15.474118868546682},"radiusKm":9.042773409064601,"totalPopulation":232303,"memberNodeCount":7,"name":"Cobán","matchedCity":{"name":"Cobán","country":"GT","lat":15.47025,"lon":-90.37455,"pop":212047,"rank":2622}},{"id":"city-228","center":{"lng":-86.80024672142349,"lat":15.772025048571825},"radiusKm":9.028490739201066,"totalPopulation":231204,"memberNodeCount":5,"name":"La Ceiba","matchedCity":{"name":"La Ceiba","country":"HN","lat":15.75971,"lon":-86.78221,"pop":222055,"rank":2504}},{"id":"city-229","center":{"lng":-72.62797778975448,"lat":18.49108512959208},"radiusKm":9.010152133453992,"totalPopulation":229798,"memberNodeCount":8,"name":"Léogâne","matchedCity":{"name":"Léogâne","country":"HT","lat":18.5111,"lon":-72.63343,"pop":134190,"rank":4081}},{"id":"city-230","center":{"lng":-75.43147018780614,"lat":8.950712546787676},"radiusKm":8.997784326297937,"totalPopulation":228853,"memberNodeCount":7,"name":"Sahagún","matchedCity":{"name":"Sahagún","country":"CO","lat":8.94617,"lon":-75.44275,"pop":59188,"rank":9467}},{"id":"city-231","center":{"lng":-89.38880703058868,"lat":43.06972465104586},"radiusKm":8.995936053633613,"totalPopulation":228712,"memberNodeCount":7,"name":"Madison","matchedCity":{"name":"Madison","country":"US","lat":43.07305,"lon":-89.40123,"pop":280305,"rank":1961}},{"id":"city-232","center":{"lng":-85.99872465299838,"lat":39.95346675040803},"radiusKm":8.985592689588717,"totalPopulation":227924,"memberNodeCount":7,"name":"Fishers","matchedCity":{"name":"Fishers","country":"US","lat":39.95559,"lon":-86.01387,"pop":76794,"rank":7226}},{"id":"city-233","center":{"lng":-80.36240235566554,"lat":27.27990923506813},"radiusKm":8.969650413949376,"totalPopulation":226713,"memberNodeCount":7,"name":"Port Saint Lucie","matchedCity":{"name":"Port Saint Lucie","country":"US","lat":27.29393,"lon":-80.35033,"pop":164603,"rank":3350}},{"id":"city-234","center":{"lng":-92.64614499716554,"lat":16.734398931592512},"radiusKm":8.9575142595406,"totalPopulation":225794,"memberNodeCount":7,"name":"San Cristóbal de las Casas","matchedCity":{"name":"San Cristóbal de las Casas","country":"MX","lat":16.73006,"lon":-92.63825,"pop":215874,"rank":2574}},{"id":"city-235","center":{"lng":-76.63072498246842,"lat":7.886828887775773},"radiusKm":8.954855501436148,"totalPopulation":225593,"memberNodeCount":6,"name":"Apartadó","matchedCity":{"name":"Apartadó","country":"CO","lat":7.88299,"lon":-76.62587,"pop":86438,"rank":6423}},{"id":"city-236","center":{"lng":-123.01147712185296,"lat":44.940432232824},"radiusKm":8.951361000808026,"totalPopulation":225329,"memberNodeCount":7,"name":"Salem","matchedCity":{"name":"Salem","country":"US","lat":44.9429,"lon":-123.0351,"pop":175535,"rank":3161}},{"id":"city-237","center":{"lng":-75.93790566905756,"lat":40.33693133869291},"radiusKm":8.947240869762183,"totalPopulation":225018,"memberNodeCount":7,"name":"Reading","matchedCity":{"name":"Reading","country":"US","lat":40.33565,"lon":-75.92687,"pop":87879,"rank":6304}},{"id":"city-238","center":{"lng":-89.55217791876571,"lat":13.986629901247193},"radiusKm":8.945742904403465,"totalPopulation":224905,"memberNodeCount":7,"name":"Santa Ana","matchedCity":{"name":"Santa Ana","country":"SV","lat":13.98827,"lon":-89.55685,"pop":176661,"rank":3143}},{"id":"city-239","center":{"lng":-81.95650502692398,"lat":26.591062450283047},"radiusKm":8.940648720659677,"totalPopulation":224521,"memberNodeCount":7,"name":"Cape Coral","matchedCity":{"name":"Cape Coral","country":"US","lat":26.56285,"lon":-81.94953,"pop":175229,"rank":3171}},{"id":"city-240","center":{"lng":-114.76694929988977,"lat":32.45478746239849},"radiusKm":8.910602474106575,"totalPopulation":222265,"memberNodeCount":5,"name":"San Luis Río Colorado","matchedCity":{"name":"San Luis Río Colorado","country":"MX","lat":32.4555,"lon":-114.77037,"pop":176685,"rank":3142}},{"id":"city-241","center":{"lng":-85.11508254660848,"lat":41.08178071905088},"radiusKm":8.90502647639652,"totalPopulation":221848,"memberNodeCount":7,"name":"Fort Wayne","matchedCity":{"name":"Fort Wayne","country":"US","lat":41.1306,"lon":-85.12886,"pop":260326,"rank":2119}},{"id":"city-242","center":{"lng":-83.6964888600746,"lat":22.41798958449542},"radiusKm":8.896682876565542,"totalPopulation":221225,"memberNodeCount":6,"name":"Pinar del Río","matchedCity":{"name":"Pinar del Río","country":"CU","lat":22.41649,"lon":-83.69657,"pop":186990,"rank":2986}},{"id":"city-243","center":{"lng":-69.67119974162675,"lat":11.400859870767887},"radiusKm":8.878037437308091,"totalPopulation":219837,"memberNodeCount":5,"name":"Coro","matchedCity":{"name":"Coro","country":"VE","lat":11.40769,"lon":-69.67822,"pop":246657,"rank":2252}},{"id":"city-244","center":{"lng":-123.08543862222018,"lat":44.058477291504055},"radiusKm":8.833091018535862,"totalPopulation":216515,"memberNodeCount":7,"name":"Eugene","matchedCity":{"name":"Eugene","country":"US","lat":44.05207,"lon":-123.08675,"pop":176654,"rank":3144}},{"id":"city-245","center":{"lng":-90.55101092991008,"lat":38.76586095843721},"radiusKm":8.801250168573889,"totalPopulation":214182,"memberNodeCount":7,"name":"Saint Charles","matchedCity":{"name":"Saint Charles","country":"US","lat":38.78394,"lon":-90.48123,"pop":65794,"rank":8481}},{"id":"city-246","center":{"lng":-71.29794064461305,"lat":42.633263123747845},"radiusKm":8.752436124122823,"totalPopulation":210638,"memberNodeCount":7,"name":"Lowell","matchedCity":{"name":"Lowell","country":"US","lat":42.63342,"lon":-71.31617,"pop":110699,"rank":4994}},{"id":"city-247","center":{"lng":-122.71775354248979,"lat":38.44623805557434},"radiusKm":8.702286896749598,"totalPopulation":207038,"memberNodeCount":7,"name":"Santa Rosa","matchedCity":{"name":"Santa Rosa","country":"US","lat":38.44047,"lon":-122.71443,"pop":178127,"rank":3127}},{"id":"city-248","center":{"lng":-100.53755611666047,"lat":28.692942185179408},"radiusKm":8.67685313706013,"totalPopulation":205228,"memberNodeCount":5,"name":"Piedras Negras","matchedCity":{"name":"Piedras Negras","country":"MX","lat":28.70007,"lon":-100.52353,"pop":150178,"rank":3646}},{"id":"city-249","center":{"lng":-78.91734724013313,"lat":35.97624103759399},"radiusKm":8.642854542744214,"totalPopulation":202825,"memberNodeCount":7,"name":"Durham","matchedCity":{"name":"Durham","country":"US","lat":35.99403,"lon":-78.89862,"pop":257636,"rank":2141}},{"id":"city-250","center":{"lng":-84.60823132166628,"lat":34.056457756327205},"radiusKm":8.634280953715713,"totalPopulation":202222,"memberNodeCount":7},{"id":"city-251","center":{"lng":-74.23235275432131,"lat":40.09214276313823},"radiusKm":8.613279899918126,"totalPopulation":200750,"memberNodeCount":7,"name":"Lakewood","matchedCity":{"name":"Lakewood","country":"US","lat":40.09789,"lon":-74.21764,"pop":53805,"rank":10351}},{"id":"city-252","center":{"lng":-76.32032862487,"lat":40.053192276945175},"radiusKm":8.588797143319193,"totalPopulation":199043,"memberNodeCount":7,"name":"Lancaster","matchedCity":{"name":"Lancaster","country":"US","lat":40.03788,"lon":-76.30551,"pop":59339,"rank":9447}},{"id":"city-253","center":{"lng":-73.84840987521503,"lat":7.057879335435716},"radiusKm":8.585617215520992,"totalPopulation":198822,"memberNodeCount":5,"name":"Barrancabermeja","matchedCity":{"name":"Barrancabermeja","country":"CO","lat":7.06528,"lon":-73.85472,"pop":191403,"rank":2917}},{"id":"city-254","center":{"lng":-91.8063453801872,"lat":18.646336317061674},"radiusKm":8.56418847312402,"totalPopulation":197337,"memberNodeCount":3,"name":"Ciudad del Carmen","matchedCity":{"name":"Ciudad del Carmen","country":"MX","lat":18.64592,"lon":-91.82991,"pop":191238,"rank":2921}},{"id":"city-255","center":{"lng":-80.4389158396332,"lat":22.160634297613058},"radiusKm":8.529925659440753,"totalPopulation":194978,"memberNodeCount":7,"name":"Cienfuegos","matchedCity":{"name":"Cienfuegos","country":"CU","lat":22.14681,"lon":-80.4481,"pop":186644,"rank":2994}},{"id":"city-256","center":{"lng":-96.80466190211241,"lat":46.86109089582862},"radiusKm":8.522481981056846,"totalPopulation":194468,"memberNodeCount":7,"name":"Fargo","matchedCity":{"name":"Fargo","country":"US","lat":46.87719,"lon":-96.7898,"pop":118523,"rank":4639}},{"id":"city-257","center":{"lng":-75.82105472134151,"lat":20.02607488187639},"radiusKm":8.519851693458909,"totalPopulation":194288,"memberNodeCount":8,"name":"Santiago de Cuba","matchedCity":{"name":"Santiago de Cuba","country":"CU","lat":20.02287,"lon":-75.82171,"pop":555865,"rank":966}},{"id":"city-258","center":{"lng":-86.8158574342468,"lat":36.15040686374155},"radiusKm":8.51594710637599,"totalPopulation":194021,"memberNodeCount":7,"name":"Nashville","matchedCity":{"name":"Nashville","country":"US","lat":36.16589,"lon":-86.78444,"pop":689447,"rank":774}},{"id":"city-259","center":{"lng":-82.71528601050126,"lat":28.213819823894763},"radiusKm":8.511116259323883,"totalPopulation":193691,"memberNodeCount":7},{"id":"city-260","center":{"lng":-97.12602619416728,"lat":33.1981553015705},"radiusKm":8.497178568672915,"totalPopulation":192741,"memberNodeCount":6,"name":"Denton","matchedCity":{"name":"Denton","country":"US","lat":33.21484,"lon":-97.13307,"pop":131044,"rank":4179}},{"id":"city-261","center":{"lng":-121.75118453953081,"lat":37.972292931984},"radiusKm":8.490589952818702,"totalPopulation":192293,"memberNodeCount":7,"name":"Antioch","matchedCity":{"name":"Antioch","country":"US","lat":38.00492,"lon":-121.80579,"pop":110542,"rank":5000}},{"id":"city-262","center":{"lng":-84.28852639012376,"lat":30.459242866236725},"radiusKm":8.481145118128943,"totalPopulation":191652,"memberNodeCount":7,"name":"Tallahassee","matchedCity":{"name":"Tallahassee","country":"US","lat":30.43826,"lon":-84.28073,"pop":201731,"rank":2750}},{"id":"city-263","center":{"lng":-119.15363789947226,"lat":46.21938632592569},"radiusKm":8.465805909656554,"totalPopulation":190614,"memberNodeCount":7,"name":"Tri-Cities","matchedCity":{"name":"Tri-Cities","country":"US","lat":46.2454,"lon":-119.19617,"pop":244036,"rank":2284}},{"id":"city-264","center":{"lng":-70.61215914816552,"lat":9.317411719011142},"radiusKm":8.451851935497215,"totalPopulation":189673,"memberNodeCount":6,"name":"Valera","matchedCity":{"name":"Valera","country":"VE","lat":9.31778,"lon":-70.60361,"pop":244708,"rank":2275}},{"id":"city-265","center":{"lng":-68.03745213306499,"lat":10.465293393194605},"radiusKm":8.416786372604902,"totalPopulation":187322,"memberNodeCount":5,"name":"Puerto Cabello","matchedCity":{"name":"Puerto Cabello","country":"VE","lat":10.47306,"lon":-68.0125,"pop":174000,"rank":3188}},{"id":"city-266","center":{"lng":-70.25804145881949,"lat":19.29914384458056},"radiusKm":8.415872652362578,"totalPopulation":187261,"memberNodeCount":9,"name":"San Francisco de Macorís","matchedCity":{"name":"San Francisco de Macorís","country":"DO","lat":19.29377,"lon":-70.25285,"pop":124763,"rank":4414}},{"id":"city-267","center":{"lng":-81.03575556933363,"lat":34.00999669165946},"radiusKm":8.415767786528914,"totalPopulation":187254,"memberNodeCount":7,"name":"Columbia","matchedCity":{"name":"Columbia","country":"US","lat":34.00071,"lon":-81.03481,"pop":142416,"rank":3847}},{"id":"city-268","center":{"lng":-81.56148884694751,"lat":23.0301756950711},"radiusKm":8.41286046438715,"totalPopulation":187060,"memberNodeCount":6,"name":"Matanzas","matchedCity":{"name":"Matanzas","country":"CU","lat":23.04388,"lon":-81.58284,"pop":146733,"rank":3739}},{"id":"city-269","center":{"lng":-88.30124394186159,"lat":18.5222861688757},"radiusKm":8.406829608922525,"totalPopulation":186658,"memberNodeCount":5,"name":"Chetumal","matchedCity":{"name":"Chetumal","country":"MX","lat":18.51957,"lon":-88.30397,"pop":169028,"rank":3269}},{"id":"city-270","center":{"lng":-69.73729672793132,"lat":9.039502932023021},"radiusKm":8.4062891100338,"totalPopulation":186622,"memberNodeCount":4,"name":"Guanare","matchedCity":{"name":"Guanare","country":"VE","lat":9.03934,"lon":-69.73364,"pop":112286,"rank":4917}},{"id":"city-271","center":{"lng":-101.43760543485583,"lat":20.958761012255273},"radiusKm":8.368007420608219,"totalPopulation":184084,"memberNodeCount":7,"name":"Silao","matchedCity":{"name":"Silao","country":"MX","lat":20.94356,"lon":-101.42703,"pop":74242,"rank":7493}},{"id":"city-272","center":{"lng":-104.32253223692516,"lat":19.093728973778333},"radiusKm":8.315094310839791,"totalPopulation":180614,"memberNodeCount":6,"name":"Manzanillo","matchedCity":{"name":"Manzanillo","country":"MX","lat":19.11695,"lon":-104.34214,"pop":159853,"rank":3450}},{"id":"city-273","center":{"lng":-76.46614867025347,"lat":37.088007212990185},"radiusKm":8.31011923854327,"totalPopulation":180290,"memberNodeCount":7},{"id":"city-274","center":{"lng":-71.3170455834684,"lat":10.203214564745991},"radiusKm":8.289170951944374,"totalPopulation":178930,"memberNodeCount":5,"name":"Ciudad Ojeda","matchedCity":{"name":"Ciudad Ojeda","country":"VE","lat":10.20161,"lon":-71.3148,"pop":240283,"rank":2316}},{"id":"city-275","center":{"lng":-82.36510017435184,"lat":29.65859836815279},"radiusKm":8.255665298610772,"totalPopulation":176769,"memberNodeCount":7,"name":"Gainesville","matchedCity":{"name":"Gainesville","country":"US","lat":29.65163,"lon":-82.32483,"pop":145214,"rank":3769}},{"id":"city-276","center":{"lng":-70.32512842941293,"lat":18.27807725909906},"radiusKm":8.239067910321433,"totalPopulation":175705,"memberNodeCount":8,"name":"Baní","matchedCity":{"name":"Baní","country":"DO","lat":18.27971,"lon":-70.33181,"pop":66709,"rank":8346}},{"id":"city-277","center":{"lng":-72.69935021124675,"lat":19.0986566353118},"radiusKm":8.237801645694775,"totalPopulation":175624,"memberNodeCount":6,"name":"Saint-Marc","matchedCity":{"name":"Saint-Marc","country":"HT","lat":19.11136,"lon":-72.70078,"pop":66226,"rank":8410}},{"id":"city-278","center":{"lng":-105.07874487346335,"lat":40.55254397980908},"radiusKm":8.223831279580402,"totalPopulation":174732,"memberNodeCount":5,"name":"Fort Collins","matchedCity":{"name":"Fort Collins","country":"US","lat":40.58526,"lon":-105.08442,"pop":170924,"rank":3238}},{"id":"city-279","center":{"lng":-91.1293897005394,"lat":15.02964421354337},"radiusKm":8.219357633527562,"totalPopulation":174447,"memberNodeCount":6,"name":"Santa Cruz del Quiché","matchedCity":{"name":"Santa Cruz del Quiché","country":"GT","lat":15.02995,"lon":-91.14876,"pop":78279,"rank":7087}},{"id":"city-280","center":{"lng":-70.52240785808797,"lat":19.23117566583825},"radiusKm":8.20959289160845,"totalPopulation":173826,"memberNodeCount":7,"name":"La Vega","matchedCity":{"name":"La Vega","country":"DO","lat":19.22031,"lon":-70.53101,"pop":102426,"rank":5375}},{"id":"city-281","center":{"lng":-91.86717774895017,"lat":14.678415147091865},"radiusKm":8.206017689216381,"totalPopulation":173599,"memberNodeCount":7,"name":"Coatepeque","matchedCity":{"name":"Coatepeque","country":"GT","lat":14.70413,"lon":-91.86426,"pop":105415,"rank":5206}},{"id":"city-282","center":{"lng":-68.71752358427803,"lat":18.615509183609273},"radiusKm":8.175319327401796,"totalPopulation":171658,"memberNodeCount":7,"name":"Salvaleón de Higüey","matchedCity":{"name":"Salvaleón de Higüey","country":"DO","lat":18.61501,"lon":-68.70798,"pop":123787,"rank":4445}},{"id":"city-283","center":{"lng":-84.50804107396007,"lat":42.73941706328111},"radiusKm":8.173636208868125,"totalPopulation":171552,"memberNodeCount":6,"name":"Lansing","matchedCity":{"name":"Lansing","country":"US","lat":42.73253,"lon":-84.55553,"pop":112644,"rank":4896}},{"id":"city-284","center":{"lng":-111.95257652519054,"lat":41.0651653371548},"radiusKm":8.155953360835358,"totalPopulation":170441,"memberNodeCount":6,"name":"Layton","matchedCity":{"name":"Layton","country":"US","lat":41.06022,"lon":-111.97105,"pop":74143,"rank":7503}},{"id":"city-285","center":{"lng":-100.95997794990379,"lat":29.321229304042884},"radiusKm":8.148161984632216,"totalPopulation":169953,"memberNodeCount":5,"name":"Ciudad Acuña","matchedCity":{"name":"Ciudad Acuña","country":"MX","lat":29.32322,"lon":-100.95217,"pop":216099,"rank":2569}},{"id":"city-286","center":{"lng":-102.2116862903274,"lat":17.984726943638808},"radiusKm":8.104329886274092,"totalPopulation":167225,"memberNodeCount":6,"name":"Ciudad Lázaro Cárdenas","matchedCity":{"name":"Ciudad Lázaro Cárdenas","country":"MX","lat":17.97066,"lon":-102.22124,"pop":196003,"rank":2858}},{"id":"city-287","center":{"lng":-93.38085029651987,"lat":17.997470096524633},"radiusKm":8.100758158584535,"totalPopulation":167004,"memberNodeCount":7,"name":"Cárdenas","matchedCity":{"name":"Cárdenas","country":"MX","lat":18.00135,"lon":-93.37559,"pop":91558,"rank":6054}},{"id":"city-288","center":{"lng":-101.87370348753716,"lat":35.177750657773856},"radiusKm":8.075586057277572,"totalPopulation":165452,"memberNodeCount":5,"name":"Amarillo","matchedCity":{"name":"Amarillo","country":"US","lat":35.222,"lon":-101.8313,"pop":198645,"rank":2813}},{"id":"city-289","center":{"lng":-72.39250842415737,"lat":19.696037139012418},"radiusKm":8.061765674237884,"totalPopulation":164604,"memberNodeCount":7},{"id":"city-290","center":{"lng":-87.64216272207995,"lat":14.44273387136609},"radiusKm":8.05825414592786,"totalPopulation":164389,"memberNodeCount":7,"name":"Comayagua","matchedCity":{"name":"Comayagua","country":"HN","lat":14.45577,"lon":-87.63968,"pop":58784,"rank":9543}},{"id":"city-291","center":{"lng":-105.47142888688758,"lat":28.183718792724243},"radiusKm":8.039222375561701,"totalPopulation":163227,"memberNodeCount":7,"name":"Ciudad Delicias","matchedCity":{"name":"Ciudad Delicias","country":"MX","lat":28.19013,"lon":-105.47012,"pop":148045,"rank":3705}},{"id":"city-292","center":{"lng":-121.64135739221197,"lat":36.687776894481665},"radiusKm":8.01762495522067,"totalPopulation":161915,"memberNodeCount":5,"name":"Salinas","matchedCity":{"name":"Salinas","country":"US","lat":36.67774,"lon":-121.6555,"pop":157380,"rank":3493}},{"id":"city-293","center":{"lng":-77.89430944211759,"lat":34.208748475104706},"radiusKm":7.981379600499464,"totalPopulation":159729,"memberNodeCount":7,"name":"Wilmington","matchedCity":{"name":"Wilmington","country":"US","lat":34.23556,"lon":-77.94604,"pop":115933,"rank":4772}},{"id":"city-294","center":{"lng":-78.98695312614399,"lat":35.04813960650375},"radiusKm":7.968968182622758,"totalPopulation":158985,"memberNodeCount":7},{"id":"city-295","center":{"lng":-122.83671084848407,"lat":47.020086327256195},"radiusKm":7.958394698230177,"totalPopulation":158353,"memberNodeCount":7,"name":"Olympia","matchedCity":{"name":"Olympia","country":"US","lat":47.04491,"lon":-122.90169,"pop":55733,"rank":10006}},{"id":"city-296","center":{"lng":-99.52829201455627,"lat":18.34162789132775},"radiusKm":7.920200414268732,"totalPopulation":156084,"memberNodeCount":7,"name":"Iguala de la Independencia","matchedCity":{"name":"Iguala de la Independencia","country":"MX","lat":18.34536,"lon":-99.5413,"pop":118468,"rank":4642}},{"id":"city-297","center":{"lng":-88.24221145773541,"lat":40.10750345405542},"radiusKm":7.8907445216296885,"totalPopulation":154349,"memberNodeCount":5,"name":"Champaign","matchedCity":{"name":"Champaign","country":"US","lat":40.11642,"lon":-88.24338,"pop":86096,"rank":6453}},{"id":"city-298","center":{"lng":-82.43143305167888,"lat":8.414957961952284},"radiusKm":7.8832906027600576,"totalPopulation":153912,"memberNodeCount":5,"name":"David","matchedCity":{"name":"David","country":"PA","lat":8.42729,"lon":-82.43085,"pop":81957,"rank":6781}},{"id":"city-299","center":{"lng":-70.08263257139886,"lat":10.174151456972155},"radiusKm":7.881702479370567,"totalPopulation":153819,"memberNodeCount":4,"name":"Carora","matchedCity":{"name":"Carora","country":"VE","lat":10.17283,"lon":-70.081,"pop":121741,"rank":4512}},{"id":"city-300","center":{"lng":-80.45394689772476,"lat":25.48346959432035},"radiusKm":7.880387097034572,"totalPopulation":153742,"memberNodeCount":7,"name":"Homestead","matchedCity":{"name":"Homestead","country":"US","lat":25.46872,"lon":-80.47756,"pop":80737,"rank":6877}},{"id":"city-301","center":{"lng":-79.23812566103639,"lat":43.1690435016552},"radiusKm":7.875497542453973,"totalPopulation":153456,"memberNodeCount":4,"name":"St. Catharines","matchedCity":{"name":"St. Catharines","country":"CA","lat":43.17126,"lon":-79.24267,"pop":136803,"rank":4009}},{"id":"city-302","center":{"lng":-88.18115410311003,"lat":13.483456529931164},"radiusKm":7.869711139115712,"totalPopulation":153118,"memberNodeCount":5,"name":"San Miguel","matchedCity":{"name":"San Miguel","country":"SV","lat":13.48261,"lon":-88.18211,"pop":247126,"rank":2247}},{"id":"city-303","center":{"lng":-78.76878979599657,"lat":21.844265855057145},"radiusKm":7.839649494063407,"totalPopulation":151370,"memberNodeCount":5,"name":"Ciego de Ávila","matchedCity":{"name":"Ciego de Ávila","country":"CU","lat":21.8422,"lon":-78.76034,"pop":142027,"rank":3856}},{"id":"city-304","center":{"lng":-79.45257323374703,"lat":21.93271932162354},"radiusKm":7.829052486811684,"totalPopulation":150757,"memberNodeCount":6,"name":"Sancti Spíritus","matchedCity":{"name":"Sancti Spíritus","country":"CU","lat":21.93429,"lon":-79.4398,"pop":127069,"rank":4324}},{"id":"city-305","center":{"lng":-72.23923185344827,"lat":11.381339503673512},"radiusKm":7.801588301437161,"totalPopulation":149176,"memberNodeCount":3,"name":"Maicao","matchedCity":{"name":"Maicao","country":"CO","lat":11.37837,"lon":-72.2395,"pop":166603,"rank":3317}},{"id":"city-306","center":{"lng":-119.30974654789136,"lat":36.32647750498065},"radiusKm":7.799862089530795,"totalPopulation":149077,"memberNodeCount":4,"name":"Visalia","matchedCity":{"name":"Visalia","country":"US","lat":36.33023,"lon":-119.29206,"pop":130104,"rank":4216}},{"id":"city-307","center":{"lng":-70.69429959344957,"lat":19.786576907962633},"radiusKm":7.768535668501728,"totalPopulation":147288,"memberNodeCount":5,"name":"Puerto Plata","matchedCity":{"name":"Puerto Plata","country":"DO","lat":19.79344,"lon":-70.6884,"pop":146000,"rank":3748}},{"id":"city-308","center":{"lng":-74.28621782493043,"lat":8.566132073579965},"radiusKm":7.756703033164667,"totalPopulation":146616,"memberNodeCount":6},{"id":"city-309","center":{"lng":-63.257701072050125,"lat":10.655460166390261},"radiusKm":7.755062634752836,"totalPopulation":146523,"memberNodeCount":5,"name":"Carúpano","matchedCity":{"name":"Carúpano","country":"VE","lat":10.66516,"lon":-63.25387,"pop":167187,"rank":3304}},{"id":"city-310","center":{"lng":-71.45340730078323,"lat":42.99204428196839},"radiusKm":7.740214588354307,"totalPopulation":145683,"memberNodeCount":7,"name":"Manchester","matchedCity":{"name":"Manchester","country":"US","lat":42.99564,"lon":-71.45479,"pop":110229,"rank":5013}},{"id":"city-311","center":{"lng":-91.64338726265451,"lat":42.01100784917933},"radiusKm":7.73033742174181,"totalPopulation":145126,"memberNodeCount":5,"name":"Cedar Rapids","matchedCity":{"name":"Cedar Rapids","country":"US","lat":42.00833,"lon":-91.64407,"pop":130405,"rank":4198}},{"id":"city-312","center":{"lng":-86.86817515228796,"lat":12.428845100035343},"radiusKm":7.715625674446746,"totalPopulation":144299,"memberNodeCount":5,"name":"León","matchedCity":{"name":"León","country":"NI","lat":12.43527,"lon":-86.87862,"pop":144538,"rank":3788}},{"id":"city-313","center":{"lng":-87.17233801683052,"lat":13.308220675035415},"radiusKm":7.697975973259897,"totalPopulation":143311,"memberNodeCount":7,"name":"Ciudad Choluteca","matchedCity":{"name":"Ciudad Choluteca","country":"HN","lat":13.30569,"lon":-87.17882,"pop":75872,"rank":7329}},{"id":"city-314","center":{"lng":-73.9349371771862,"lat":42.80467148721315},"radiusKm":7.695880510937953,"totalPopulation":143194,"memberNodeCount":5,"name":"Schenectady","matchedCity":{"name":"Schenectady","country":"US","lat":42.81424,"lon":-73.93957,"pop":65305,"rank":8547}},{"id":"city-315","center":{"lng":-66.78631180963185,"lat":10.131059780737692},"radiusKm":7.688761747918606,"totalPopulation":142797,"memberNodeCount":5,"name":"Ocumare del Tuy","matchedCity":{"name":"Ocumare del Tuy","country":"VE","lat":10.1182,"lon":-66.77513,"pop":166072,"rank":3325}},{"id":"city-316","center":{"lng":-109.44751014714228,"lat":27.07131876540615},"radiusKm":7.687361548929553,"totalPopulation":142719,"memberNodeCount":4,"name":"Navojoa","matchedCity":{"name":"Navojoa","country":"MX","lat":27.07057,"lon":-109.44345,"pop":113836,"rank":4850}},{"id":"city-317","center":{"lng":-80.25042585538547,"lat":43.53658536702116},"radiusKm":7.6452614219667305,"totalPopulation":140387,"memberNodeCount":4,"name":"Guelph","matchedCity":{"name":"Guelph","country":"CA","lat":43.54594,"lon":-80.25599,"pop":143740,"rank":3807}},{"id":"city-318","center":{"lng":-106.86695774440817,"lat":28.407207297347497},"radiusKm":7.637884259330566,"totalPopulation":139981,"memberNodeCount":3,"name":"Cuauhtémoc","matchedCity":{"name":"Cuauhtémoc","country":"MX","lat":28.40688,"lon":-106.86658,"pop":168482,"rank":3281}},{"id":"city-319","center":{"lng":-89.61598413100027,"lat":40.722598990083355},"radiusKm":7.622922699131688,"totalPopulation":139160,"memberNodeCount":7,"name":"Peoria","matchedCity":{"name":"Peoria","country":"US","lat":40.69365,"lon":-89.58899,"pop":115070,"rank":4811}},{"id":"city-320","center":{"lng":-70.94123029837304,"lat":41.64113902404125},"radiusKm":7.595802456429587,"totalPopulation":137680,"memberNodeCount":5,"name":"New Bedford","matchedCity":{"name":"New Bedford","country":"US","lat":41.63526,"lon":-70.92701,"pop":101079,"rank":5458}},{"id":"city-321","center":{"lng":-64.46880457436261,"lat":9.431708236702733},"radiusKm":7.567320029436426,"totalPopulation":136137,"memberNodeCount":6,"name":"Anaco","matchedCity":{"name":"Anaco","country":"VE","lat":9.42958,"lon":-64.46428,"pop":139397,"rank":3942}},{"id":"city-322","center":{"lng":-81.10368044585987,"lat":32.04384118349245},"radiusKm":7.56407611864115,"totalPopulation":135962,"memberNodeCount":5,"name":"Savannah","matchedCity":{"name":"Savannah","country":"US","lat":32.08354,"lon":-81.09983,"pop":147780,"rank":3715}},{"id":"city-323","center":{"lng":-68.65947438603477,"lat":10.406811784223489},"radiusKm":7.557245545450253,"totalPopulation":135594,"memberNodeCount":4},{"id":"city-324","center":{"lng":-73.76191309430871,"lat":18.22753648584624},"radiusKm":7.5320065716197,"totalPopulation":134240,"memberNodeCount":7,"name":"Les Cayes","matchedCity":{"name":"Les Cayes","country":"HT","lat":18.19199,"lon":-73.74948,"pop":125799,"rank":4373}},{"id":"city-325","center":{"lng":-71.65283548067386,"lat":8.622642640212195},"radiusKm":7.510323732095052,"totalPopulation":133084,"memberNodeCount":4,"name":"El Vigía","matchedCity":{"name":"El Vigía","country":"VE","lat":8.6135,"lon":-71.65702,"pop":162289,"rank":3397}},{"id":"city-326","center":{"lng":-122.30298995396964,"lat":49.050303087737326},"radiusKm":7.495622404297771,"totalPopulation":132304,"memberNodeCount":6,"name":"Abbotsford","matchedCity":{"name":"Abbotsford","country":"CA","lat":49.05798,"lon":-122.25257,"pop":141397,"rank":3878}},{"id":"city-327","center":{"lng":-67.4249003732077,"lat":8.919169444533376},"radiusKm":7.474468385815036,"totalPopulation":131187,"memberNodeCount":5,"name":"Calabozo","matchedCity":{"name":"Calabozo","country":"VE","lat":8.92416,"lon":-67.42929,"pop":168605,"rank":3279}},{"id":"city-328","center":{"lng":-70.75870448329329,"lat":7.087191431104493},"radiusKm":7.457145647263074,"totalPopulation":130277,"memberNodeCount":3,"name":"Arauca","matchedCity":{"name":"Arauca","country":"CO","lat":7.08471,"lon":-70.75908,"pop":85585,"rank":6486}},{"id":"city-329","center":{"lng":-87.12250134446839,"lat":12.635660646867594},"radiusKm":7.442309892544625,"totalPopulation":129501,"memberNodeCount":6,"name":"Chinandega","matchedCity":{"name":"Chinandega","country":"NI","lat":12.62951,"lon":-87.13133,"pop":126387,"rank":4350}},{"id":"city-330","center":{"lng":-68.58080602322832,"lat":9.65865902507394},"radiusKm":7.442233266248103,"totalPopulation":129497,"memberNodeCount":4,"name":"San Carlos","matchedCity":{"name":"San Carlos","country":"VE","lat":9.66415,"lon":-68.58659,"pop":120375,"rank":4565}},{"id":"city-331","center":{"lng":-67.36462162443118,"lat":9.913155323709399},"radiusKm":7.4030045075595305,"totalPopulation":127460,"memberNodeCount":6,"name":"San Juan de los Morros","matchedCity":{"name":"San Juan de los Morros","country":"VE","lat":9.91246,"lon":-67.35398,"pop":160868,"rank":3427}},{"id":"city-332","center":{"lng":-71.73152014664629,"lat":19.555229707259034},"radiusKm":7.392224471917437,"totalPopulation":126904,"memberNodeCount":7},{"id":"city-333","center":{"lng":-62.061033010355565,"lat":9.058658376461599},"radiusKm":7.367462815420786,"totalPopulation":125633,"memberNodeCount":4,"name":"Tucupita","matchedCity":{"name":"Tucupita","country":"VE","lat":9.06263,"lon":-62.05208,"pop":99778,"rank":5546}},{"id":"city-334","center":{"lng":-77.90178743697413,"lat":18.460907273668827},"radiusKm":7.346270985077582,"totalPopulation":124552,"memberNodeCount":7,"name":"Montego Bay","matchedCity":{"name":"Montego Bay","country":"JM","lat":18.47116,"lon":-77.91883,"pop":82867,"rank":6694}},{"id":"city-335","center":{"lng":-74.26339204225181,"lat":10.99303208212118},"radiusKm":7.323611225707216,"totalPopulation":123403,"memberNodeCount":5,"name":"Ciénaga","matchedCity":{"name":"Ciénaga","country":"CO","lat":11.00703,"lon":-74.24765,"pop":88311,"rank":6273}},{"id":"city-336","center":{"lng":-70.40055941925928,"lat":18.93425121327921},"radiusKm":7.299854751033566,"totalPopulation":122206,"memberNodeCount":7,"name":"Bonao","matchedCity":{"name":"Bonao","country":"DO","lat":18.94154,"lon":-70.41111,"pop":73269,"rank":7596}},{"id":"city-337","center":{"lng":-87.85027756401401,"lat":42.58467460629533},"radiusKm":7.28804815381058,"totalPopulation":121614,"memberNodeCount":5,"name":"Kenosha","matchedCity":{"name":"Kenosha","country":"US","lat":42.58474,"lon":-87.82119,"pop":99858,"rank":5540}},{"id":"city-338","center":{"lng":-68.29539572451768,"lat":9.92928633973669},"radiusKm":7.271149339216694,"totalPopulation":120770,"memberNodeCount":6,"name":"Tinaquillo","matchedCity":{"name":"Tinaquillo","country":"VE","lat":9.91861,"lon":-68.30472,"pop":115937,"rank":4771}},{"id":"city-339","center":{"lng":-72.5191548147177,"lat":18.245991253203638},"radiusKm":7.219711054066642,"totalPopulation":118225,"memberNodeCount":6,"name":"Jacmel","matchedCity":{"name":"Jacmel","country":"HT","lat":18.23569,"lon":-72.53686,"pop":137966,"rank":3977}},{"id":"city-340","center":{"lng":-87.84069873695437,"lat":14.580233821301306},"radiusKm":7.218041488317904,"totalPopulation":118143,"memberNodeCount":7},{"id":"city-341","center":{"lng":-66.00536023744051,"lat":9.209317702216055},"radiusKm":7.204125563928274,"totalPopulation":117461,"memberNodeCount":3,"name":"Valle de La Pascua","matchedCity":{"name":"Valle de La Pascua","country":"VE","lat":9.21554,"lon":-66.00734,"pop":153136,"rank":3599}},{"id":"city-342","center":{"lng":-102.75970395431268,"lat":20.345072260081967},"radiusKm":7.202121492390476,"totalPopulation":117363,"memberNodeCount":4,"name":"Ocotlán","matchedCity":{"name":"Ocotlán","country":"MX","lat":20.35116,"lon":-102.76832,"pop":83769,"rank":6628}},{"id":"city-343","center":{"lng":-72.27176233725058,"lat":11.72231475031878},"radiusKm":7.175533716579011,"totalPopulation":116068,"memberNodeCount":2},{"id":"city-344","center":{"lng":-72.67723408803833,"lat":19.695434547982707},"radiusKm":7.1623000652649935,"totalPopulation":115427,"memberNodeCount":7},{"id":"city-345","center":{"lng":-60.975145244885965,"lat":14.000942357528173},"radiusKm":7.097830190235915,"totalPopulation":112338,"memberNodeCount":5},{"id":"city-346","center":{"lng":-121.4325166545487,"lat":37.73086664156519},"radiusKm":7.083944949025896,"totalPopulation":111680,"memberNodeCount":7,"name":"Tracy","matchedCity":{"name":"Tracy","country":"US","lat":37.73987,"lon":-121.42618,"pop":87075,"rank":6368}},{"id":"city-347","center":{"lng":-86.58200842920004,"lat":14.02938079140037},"radiusKm":6.994286807415404,"totalPopulation":107493,"memberNodeCount":6},{"id":"city-348","center":{"lng":-72.53384282580222,"lat":19.19766893516699},"radiusKm":6.981183734113522,"totalPopulation":106890,"memberNodeCount":5},{"id":"city-349","center":{"lng":-66.61307278405884,"lat":18.015464181966966},"radiusKm":6.96866496455215,"totalPopulation":106316,"memberNodeCount":5,"name":"Ponce","matchedCity":{"name":"Ponce","country":"PR","lat":18.01031,"lon":-66.62398,"pop":137491,"rank":3986}},{"id":"city-350","center":{"lng":-86.36125701797697,"lat":13.090512729049108},"radiusKm":6.937853066332979,"totalPopulation":104912,"memberNodeCount":4,"name":"Estelí","matchedCity":{"name":"Estelí","country":"NI","lat":13.09291,"lon":-86.35589,"pop":96422,"rank":5738}},{"id":"city-351","center":{"lng":-121.23137879957947,"lat":37.802187699177644},"radiusKm":6.868136959048133,"totalPopulation":101781,"memberNodeCount":4,"name":"Manteca","matchedCity":{"name":"Manteca","country":"US","lat":37.79743,"lon":-121.21605,"pop":75448,"rank":7369}},{"id":"city-352","center":{"lng":-122.87882061915367,"lat":42.34010553704529},"radiusKm":6.8510898332917245,"totalPopulation":101025,"memberNodeCount":4,"name":"Medford","matchedCity":{"name":"Medford","country":"US","lat":42.32652,"lon":-122.87559,"pop":79805,"rank":6960}},{"id":"city-353","center":{"lng":-69.05508779248918,"lat":10.118748778586905},"radiusKm":6.820914731050011,"totalPopulation":99696,"memberNodeCount":5},{"id":"city-354","center":{"lng":-71.23006105824075,"lat":18.822406017594524},"radiusKm":6.76589809863366,"totalPopulation":97303,"memberNodeCount":5,"name":"San Juan de la Maguana","matchedCity":{"name":"San Juan de la Maguana","country":"DO","lat":18.8064,"lon":-71.22626,"pop":72950,"rank":7640}},{"id":"city-355","center":{"lng":-123.98292241468401,"lat":49.19615447191758},"radiusKm":6.744366723926335,"totalPopulation":96377,"memberNodeCount":6,"name":"Nanaimo","matchedCity":{"name":"Nanaimo","country":"CA","lat":49.16638,"lon":-123.94003,"pop":90504,"rank":6117}},{"id":"city-356","center":{"lng":-72.08010287948412,"lat":18.805828076724826},"radiusKm":6.620965649265724,"totalPopulation":91183,"memberNodeCount":4},{"id":"city-357","center":{"lng":-75.19793767109594,"lat":20.1429056036797},"radiusKm":6.568414344507033,"totalPopulation":89029,"memberNodeCount":4,"name":"Guantánamo","matchedCity":{"name":"Guantánamo","country":"CU","lat":20.14444,"lon":-75.20917,"pop":272801,"rank":2018}},{"id":"city-358","center":{"lng":-73.99947747565527,"lat":18.515400381893887},"radiusKm":6.540630095368682,"totalPopulation":87904,"memberNodeCount":7},{"id":"city-359","center":{"lng":-70.73136582072881,"lat":18.44492679937994},"radiusKm":6.536386171044455,"totalPopulation":87733,"memberNodeCount":4,"name":"Azua","matchedCity":{"name":"Azua","country":"DO","lat":18.45319,"lon":-70.7349,"pop":59139,"rank":9476}},{"id":"city-360","center":{"lng":-71.10033968215583,"lat":18.210815122185455},"radiusKm":6.50376509466699,"totalPopulation":86426,"memberNodeCount":3,"name":"Santa Cruz de Barahona","matchedCity":{"name":"Santa Cruz de Barahona","country":"DO","lat":18.20861,"lon":-71.10068,"pop":77160,"rank":7188}},{"id":"city-361","center":{"lng":-74.77376089678232,"lat":9.239445860225816},"radiusKm":6.4661982386314705,"totalPopulation":84937,"memberNodeCount":3,"name":"Magangué","matchedCity":{"name":"Magangué","country":"CO","lat":9.24202,"lon":-74.75467,"pop":123982,"rank":4438}},{"id":"city-362","center":{"lng":-74.9499974302542,"lat":20.644392618389052},"radiusKm":6.4391609323695125,"totalPopulation":83876,"memberNodeCount":4,"name":"Moa","matchedCity":{"name":"Moa","country":"CU","lat":20.65776,"lon":-74.95075,"pop":92852,"rank":5967}},{"id":"city-363","center":{"lng":-68.80065501020859,"lat":10.273740350196412},"radiusKm":6.436011822327964,"totalPopulation":83753,"memberNodeCount":3,"name":"Cocorote","matchedCity":{"name":"Cocorote","country":"VE","lat":10.31954,"lon":-68.78298,"pop":52803,"rank":10540}},{"id":"city-364","center":{"lng":-76.6072410823835,"lat":21.182376842736044},"radiusKm":6.34107205822687,"totalPopulation":80101,"memberNodeCount":4,"name":"Puerto Padre","matchedCity":{"name":"Puerto Padre","country":"CU","lat":21.19517,"lon":-76.60358,"pop":76838,"rank":7221}},{"id":"city-365","center":{"lng":-79.99317431144361,"lat":21.80000049182599},"radiusKm":6.322466885945893,"totalPopulation":79398,"memberNodeCount":5,"name":"Trinidad","matchedCity":{"name":"Trinidad","country":"CU","lat":21.80224,"lon":-79.98467,"pop":60206,"rank":9301}},{"id":"city-366","center":{"lng":-67.13809096339016,"lat":18.182674710493796},"radiusKm":6.276640223345378,"totalPopulation":77684,"memberNodeCount":5,"name":"Mayagüez","matchedCity":{"name":"Mayagüez","country":"PR","lat":18.20107,"lon":-67.13962,"pop":73077,"rank":7618}},{"id":"city-367","center":{"lng":-70.8327765862435,"lat":8.222844761060342},"radiusKm":6.265146002069409,"totalPopulation":77258,"memberNodeCount":2,"name":"Socopó","matchedCity":{"name":"Socopó","country":"VE","lat":8.23062,"lon":-70.82198,"pop":72352,"rank":7690}},{"id":"city-368","center":{"lng":-82.76726328754162,"lat":22.821277634167522},