[
    {
        "name": "Shanghai",
        "country": "CN",
        "lat": "31.2222200",
        "lon": "121.4580600",
        "pop": 24874500
    },
    {
        "name": "Beijing",
        "country": "CN",
        "lat": "39.9075000",
        "lon": "116.3972300",
        "pop": 18960744
    },
    {
        "name": "Shenzhen",
        "country": "CN",
        "lat": "22.5455400",
        "lon": "114.0683000",
        "pop": 17494398
    },
    {
        "name": "Guangzhou",
        "country": "CN",
        "lat": "23.1166700",
        "lon": "113.2500000",
        "pop": 16096724
    },
    {
        "name": "Kinshasa",
        "country": "CD",
        "lat": "-4.3275800",
        "lon": "15.3135700",
        "pop": 16000000
    },
    {
        "name": "Istanbul",
        "country": "TR",
        "lat": "41.0138400",
        "lon": "28.9496600",
        "pop": 15701602
    },
    {
        "name": "Lagos",
        "country": "NG",
        "lat": "6.4540700",
        "lon": "3.3946700",
        "pop": 15388000
    },
    {
        "name": "Ho Chi Minh City",
        "country": "VN",
        "lat": "10.8230200",
        "lon": "106.6296500",
        "pop": 14002598
    },
    {
        "name": "Chengdu",
        "country": "CN",
        "lat": "30.6666700",
        "lon": "104.0666700",
        "pop": 13568357
    },
    {
        "name": "Lahore",
        "country": "PK",
        "lat": "31.5580000",
        "lon": "74.3507100",
        "pop": 13004135
    },
    {
        "name": "Mumbai",
        "country": "IN",
        "lat": "19.0728300",
        "lon": "72.8826100",
        "pop": 12691836
    },
    {
        "name": "S\u00e3o Paulo",
        "country": "BR",
        "lat": "-23.5475000",
        "lon": "-46.6361100",
        "pop": 12400232
    },
    {
        "name": "Mexico City",
        "country": "MX",
        "lat": "19.4284700",
        "lon": "-99.1276600",
        "pop": 12294193
    },
    {
        "name": "Karachi",
        "country": "PK",
        "lat": "24.8608000",
        "lon": "67.0104000",
        "pop": 11624219
    },
    {
        "name": "Tianjin",
        "country": "CN",
        "lat": "39.1422200",
        "lon": "117.1766700",
        "pop": 11090314
    },
    {
        "name": "Delhi",
        "country": "IN",
        "lat": "28.6519500",
        "lon": "77.2314900",
        "pop": 11034555
    },
    {
        "name": "Wuhan",
        "country": "CN",
        "lat": "30.5833300",
        "lon": "114.2666700",
        "pop": 10392693
    },
    {
        "name": "Moscow",
        "country": "RU",
        "lat": "55.7520400",
        "lon": "37.6178100",
        "pop": 10381222
    },
    {
        "name": "Dhaka",
        "country": "BD",
        "lat": "23.7104000",
        "lon": "90.4074400",
        "pop": 10356500
    },
    {
        "name": "Seoul",
        "country": "KR",
        "lat": "37.5660000",
        "lon": "126.9784000",
        "pop": 10349312
    },
    {
        "name": "Tokyo",
        "country": "JP",
        "lat": "35.6895000",
        "lon": "139.6917100",
        "pop": 9733276
    },
    {
        "name": "Dongguan",
        "country": "CN",
        "lat": "23.0179700",
        "lon": "113.7486600",
        "pop": 9644871
    },
    {
        "name": "Cairo",
        "country": "EG",
        "lat": "30.0626300",
        "lon": "31.2496700",
        "pop": 9606916
    },
    {
        "name": "Xi\u2019an",
        "country": "CN",
        "lat": "34.2583300",
        "lon": "108.9286100",
        "pop": 9600000
    },
    {
        "name": "Johannesburg",
        "country": "ZA",
        "lat": "-26.2022700",
        "lon": "28.0436300",
        "pop": 9418183
    },
    {
        "name": "Nanjing",
        "country": "CN",
        "lat": "32.0616700",
        "lon": "118.7777800",
        "pop": 9314685
    },
    {
        "name": "Hangzhou",
        "country": "CN",
        "lat": "30.2936500",
        "lon": "120.1614200",
        "pop": 9236032
    },
    {
        "name": "Foshan",
        "country": "CN",
        "lat": "23.0267700",
        "lon": "113.1314800",
        "pop": 9042509
    },
    {
        "name": "London",
        "country": "GB",
        "lat": "51.5085300",
        "lon": "-0.1257400",
        "pop": 8961989
    },
    {
        "name": "New York City",
        "country": "US",
        "lat": "40.7142700",
        "lon": "-74.0059700",
        "pop": 8804190
    },
    {
        "name": "Jakarta",
        "country": "ID",
        "lat": "-6.2146200",
        "lon": "106.8451300",
        "pop": 8540121
    },
    {
        "name": "Bengaluru",
        "country": "IN",
        "lat": "12.9719400",
        "lon": "77.5936900",
        "pop": 8495492
    },
    {
        "name": "Hanoi",
        "country": "VN",
        "lat": "21.0245000",
        "lon": "105.8411700",
        "pop": 8053663
    },
    {
        "name": "Taipei",
        "country": "TW",
        "lat": "25.0530600",
        "lon": "121.5263900",
        "pop": 7871900
    },
    {
        "name": "Lima",
        "country": "PE",
        "lat": "-12.0431800",
        "lon": "-77.0282400",
        "pop": 7737002
    },
    {
        "name": "Bogot\u00e1",
        "country": "CO",
        "lat": "4.6097100",
        "lon": "-74.0817500",
        "pop": 7674366
    },
    {
        "name": "Chongqing",
        "country": "CN",
        "lat": "29.5602600",
        "lon": "106.5577100",
        "pop": 7457599
    },
    {
        "name": "Hong Kong",
        "country": "HK",
        "lat": "22.2783200",
        "lon": "114.1746900",
        "pop": 7396076
    },
    {
        "name": "Baghdad",
        "country": "IQ",
        "lat": "33.3405800",
        "lon": "44.4008800",
        "pop": 7216000
    },
    {
        "name": "Qingdao",
        "country": "CN",
        "lat": "36.0648800",
        "lon": "120.3804200",
        "pop": 7172451
    },
    {
        "name": "Tehran",
        "country": "IR",
        "lat": "35.6943900",
        "lon": "51.4215100",
        "pop": 7153309
    },
    {
        "name": "Shenyang",
        "country": "CN",
        "lat": "41.7922200",
        "lon": "123.4327800",
        "pop": 7050000
    },
    {
        "name": "Hyderabad",
        "country": "IN",
        "lat": "17.3840500",
        "lon": "78.4563600",
        "pop": 6993262
    },
    {
        "name": "Rio de Janeiro",
        "country": "BR",
        "lat": "-22.9064200",
        "lon": "-43.1822300",
        "pop": 6747815
    },
    {
        "name": "Suzhou",
        "country": "CN",
        "lat": "31.3040800",
        "lon": "120.5953800",
        "pop": 6715559
    },
    {
        "name": "Ahmedabad",
        "country": "IN",
        "lat": "23.0257900",
        "lon": "72.5872700",
        "pop": 6357693
    },
    {
        "name": "Abidjan",
        "country": "CI",
        "lat": "5.3544400",
        "lon": "-4.0016700",
        "pop": 6321017
    },
    {
        "name": "Singapore",
        "country": "SG",
        "lat": "1.2896700",
        "lon": "103.8500700",
        "pop": 5638700
    },
    {
        "name": "Sydney",
        "country": "AU",
        "lat": "-33.8678500",
        "lon": "151.2073200",
        "pop": 5557233
    },
    {
        "name": "Dar es Salaam",
        "country": "TZ",
        "lat": "-6.8234900",
        "lon": "39.2695100",
        "pop": 5383728
    },
    {
        "name": "Saint Petersburg",
        "country": "RU",
        "lat": "59.9386300",
        "lon": "30.3141300",
        "pop": 5351935
    },
    {
        "name": "Melbourne",
        "country": "AU",
        "lat": "-37.8140000",
        "lon": "144.9633200",
        "pop": 5350705
    },
    {
        "name": "Alexandria",
        "country": "EG",
        "lat": "31.2017600",
        "lon": "29.9158200",
        "pop": 5263542
    },
    {
        "name": "Harbin",
        "country": "CN",
        "lat": "45.7500000",
        "lon": "126.6500000",
        "pop": 5242897
    },
    {
        "name": "Bangkok",
        "country": "TH",
        "lat": "13.7539800",
        "lon": "100.5014400",
        "pop": 5104476
    },
    {
        "name": "Hefei",
        "country": "CN",
        "lat": "31.8638900",
        "lon": "117.2808300",
        "pop": 5050000
    },
    {
        "name": "Dalian",
        "country": "CN",
        "lat": "38.9122200",
        "lon": "121.6022200",
        "pop": 4913879
    },
    {
        "name": "Kano",
        "country": "NG",
        "lat": "12.0001200",
        "lon": "8.5167200",
        "pop": 4910000
    },
    {
        "name": "Santiago",
        "country": "CL",
        "lat": "-33.4569400",
        "lon": "-70.6482700",
        "pop": 4837295
    },
    {
        "name": "Cape Town",
        "country": "ZA",
        "lat": "-33.9258400",
        "lon": "18.4232200",
        "pop": 4772846
    },
    {
        "name": "Peshawar",
        "country": "PK",
        "lat": "34.0080000",
        "lon": "71.5784900",
        "pop": 4758762
    },
    {
        "name": "Changchun",
        "country": "CN",
        "lat": "43.8800000",
        "lon": "125.3227800",
        "pop": 4714996
    },
    {
        "name": "Jeddah",
        "country": "SA",
        "lat": "21.4901200",
        "lon": "39.1862400",
        "pop": 4697000
    },
    {
        "name": "Chennai",
        "country": "IN",
        "lat": "13.0878400",
        "lon": "80.2784700",
        "pop": 4681087
    },
    {
        "name": "Kolkata",
        "country": "IN",
        "lat": "22.5626300",
        "lon": "88.3630400",
        "pop": 4631392
    },
    {
        "name": "Xiamen",
        "country": "CN",
        "lat": "24.4797900",
        "lon": "118.0818700",
        "pop": 4617251
    },
    {
        "name": "Surat",
        "country": "IN",
        "lat": "21.1959400",
        "lon": "72.8302300",
        "pop": 4591246
    },
    {
        "name": "Yangon",
        "country": "MM",
        "lat": "16.8052800",
        "lon": "96.1561100",
        "pop": 4477638
    },
    {
        "name": "Bao'an",
        "country": "CN",
        "lat": "22.5521300",
        "lon": "113.8828800",
        "pop": 4476554
    },
    {
        "name": "Kabul",
        "country": "AF",
        "lat": "34.5281300",
        "lon": "69.1723300",
        "pop": 4434550
    },
    {
        "name": "Nairobi",
        "country": "KE",
        "lat": "-1.2833300",
        "lon": "36.8166700",
        "pop": 4397073
    },
    {
        "name": "Wuxi",
        "country": "CN",
        "lat": "31.5688700",
        "lon": "120.2885700",
        "pop": 4396835
    },
    {
        "name": "Giza",
        "country": "EG",
        "lat": "30.0094400",
        "lon": "31.2086100",
        "pop": 4367343
    },
    {
        "name": "Jinan",
        "country": "CN",
        "lat": "36.6683300",
        "lon": "116.9972200",
        "pop": 4335989
    },
    {
        "name": "Taiyuan",
        "country": "CN",
        "lat": "37.8694400",
        "lon": "112.5602800",
        "pop": 4303673
    },
    {
        "name": "Zhengzhou",
        "country": "CN",
        "lat": "34.7577800",
        "lon": "113.6486100",
        "pop": 4253913
    },
    {
        "name": "Bamako",
        "country": "ML",
        "lat": "12.6091500",
        "lon": "-7.9752200",
        "pop": 4227569
    },
    {
        "name": "Riyadh",
        "country": "SA",
        "lat": "24.6877300",
        "lon": "46.7218500",
        "pop": 4205961
    },
    {
        "name": "New Taipei City",
        "country": "TW",
        "lat": "25.0619900",
        "lon": "121.4570300",
        "pop": 4004367
    },
    {
        "name": "Shijiazhuang",
        "country": "CN",
        "lat": "38.0413900",
        "lon": "114.4786100",
        "pop": 3938513
    },
    {
        "name": "Chattogram",
        "country": "BD",
        "lat": "22.3384000",
        "lon": "91.8316800",
        "pop": 3920222
    },
    {
        "name": "Addis Ababa",
        "country": "ET",
        "lat": "9.0249700",
        "lon": "38.7468900",
        "pop": 3860000
    },
    {
        "name": "Kunming",
        "country": "CN",
        "lat": "25.0388900",
        "lon": "102.7183300",
        "pop": 3855346
    },
    {
        "name": "Zhongshan",
        "country": "CN",
        "lat": "22.5230600",
        "lon": "113.3791200",
        "pop": 3841873
    },
    {
        "name": "Nanning",
        "country": "CN",
        "lat": "22.8166700",
        "lon": "108.3166700",
        "pop": 3839800
    },
    {
        "name": "Shantou",
        "country": "CN",
        "lat": "23.3548900",
        "lon": "116.6787600",
        "pop": 3838900
    },
    {
        "name": "Los Angeles",
        "country": "US",
        "lat": "34.0522300",
        "lon": "-118.2436800",
        "pop": 3820914
    },
    {
        "name": "Faisalabad",
        "country": "PK",
        "lat": "31.4155400",
        "lon": "73.0896900",
        "pop": 3800193
    },
    {
        "name": "Dubai",
        "country": "AE",
        "lat": "25.0772500",
        "lon": "55.3092700",
        "pop": 3790000
    },
    {
        "name": "Yokohama",
        "country": "JP",
        "lat": "35.4333300",
        "lon": "139.6500000",
        "pop": 3777491
    },
    {
        "name": "Fuzhou",
        "country": "CN",
        "lat": "26.0613900",
        "lon": "119.3061100",
        "pop": 3740000
    },
    {
        "name": "Ningbo",
        "country": "CN",
        "lat": "29.8781900",
        "lon": "121.5494500",
        "pop": 3731203
    },
    {
        "name": "Casablanca",
        "country": "MA",
        "lat": "33.5883100",
        "lon": "-7.6113800",
        "pop": 3665954
    },
    {
        "name": "Ibadan",
        "country": "NG",
        "lat": "7.3775600",
        "lon": "3.9059100",
        "pop": 3649000
    },
    {
        "name": "Puyang",
        "country": "CN",
        "lat": "29.4567900",
        "lon": "119.8887200",
        "pop": 3590000
    },
    {
        "name": "Ankara",
        "country": "TR",
        "lat": "39.9198700",
        "lon": "32.8542700",
        "pop": 3517182
    },
    {
        "name": "Shiyan",
        "country": "CN",
        "lat": "32.6475000",
        "lon": "110.7780600",
        "pop": 3460000
    },
    {
        "name": "Berlin",
        "country": "DE",
        "lat": "52.5243700",
        "lon": "13.4105300",
        "pop": 3426354
    },
    {
        "name": "Tangshan",
        "country": "CN",
        "lat": "39.6438100",
        "lon": "118.1831900",
        "pop": 3372102
    },
    {
        "name": "Rawalpindi",
        "country": "PK",
        "lat": "33.5973300",
        "lon": "73.0479000",
        "pop": 3357612
    },
    {
        "name": "L\u00fcliang",
        "country": "CN",
        "lat": "37.5192000",
        "lon": "111.1443600",
        "pop": 3346500
    },
    {
        "name": "Busan",
        "country": "KR",
        "lat": "35.1016800",
        "lon": "129.0300400",
        "pop": 3343903
    },
    {
        "name": "Durban",
        "country": "ZA",
        "lat": "-29.8579000",
        "lon": "31.0292000",
        "pop": 3338026
    },
    {
        "name": "Changzhou",
        "country": "CN",
        "lat": "31.7735900",
        "lon": "119.9540100",
        "pop": 3290918
    },
    {
        "name": "Madrid",
        "country": "ES",
        "lat": "40.4165000",
        "lon": "-3.7025600",
        "pop": 3255944
    },
    {
        "name": "Pyongyang",
        "country": "KP",
        "lat": "39.0338500",
        "lon": "125.7543200",
        "pop": 3222000
    },
    {
        "name": "Zibo",
        "country": "CN",
        "lat": "36.7905600",
        "lon": "118.0633300",
        "pop": 3129228
    },
    {
        "name": "Pune",
        "country": "IN",
        "lat": "18.5195700",
        "lon": "73.8553500",
        "pop": 3124458
    },
    {
        "name": "Bursa",
        "country": "TR",
        "lat": "40.1955900",
        "lon": "29.0601300",
        "pop": 3101833
    },
    {
        "name": "Changsha",
        "country": "CN",
        "lat": "28.1987400",
        "lon": "112.9708700",
        "pop": 3093980
    },
    {
        "name": "Quezon City",
        "country": "PH",
        "lat": "14.6488000",
        "lon": "121.0509000",
        "pop": 3084270
    },
    {
        "name": "Jaipur",
        "country": "IN",
        "lat": "26.9196200",
        "lon": "75.7878100",
        "pop": 3046163
    },
    {
        "name": "Incheon",
        "country": "KR",
        "lat": "37.4564600",
        "lon": "126.7051500",
        "pop": 3039450
    },
    {
        "name": "Guiyang",
        "country": "CN",
        "lat": "26.5833300",
        "lon": "106.7166700",
        "pop": 3037159
    },
    {
        "name": "\u00dcr\u00fcmqi",
        "country": "CN",
        "lat": "43.8009600",
        "lon": "87.6004600",
        "pop": 3029372
    },
    {
        "name": "Caracas",
        "country": "VE",
        "lat": "10.4880100",
        "lon": "-66.8791900",
        "pop": 3000000
    },
    {
        "name": "Lanzhou",
        "country": "CN",
        "lat": "36.0570100",
        "lon": "103.8398700",
        "pop": 3000000
    },
    {
        "name": "\u0130zmir",
        "country": "TR",
        "lat": "38.4127300",
        "lon": "27.1383800",
        "pop": 2938292
    },
    {
        "name": "Huizhou",
        "country": "CN",
        "lat": "23.1114700",
        "lon": "114.4152300",
        "pop": 2900113
    },
    {
        "name": "Buenos Aires",
        "country": "AR",
        "lat": "-34.6131500",
        "lon": "-58.3772300",
        "pop": 2891082
    },
    {
        "name": "Surabaya",
        "country": "ID",
        "lat": "-7.2491700",
        "lon": "112.7508300",
        "pop": 2874314
    },
    {
        "name": "Haikou",
        "country": "CN",
        "lat": "20.0342100",
        "lon": "110.3465100",
        "pop": 2873358
    },
    {
        "name": "Taichung",
        "country": "TW",
        "lat": "24.1469000",
        "lon": "120.6839000",
        "pop": 2850285
    },
    {
        "name": "Kanpur",
        "country": "IN",
        "lat": "26.4652300",
        "lon": "80.3497500",
        "pop": 2823249
    },
    {
        "name": "Kyiv",
        "country": "UA",
        "lat": "50.4546600",
        "lon": "30.5238000",
        "pop": 2797553
    },
    {
        "name": "Toronto",
        "country": "CA",
        "lat": "43.7064300",
        "lon": "-79.3986400",
        "pop": 2794356
    },
    {
        "name": "Quito",
        "country": "EC",
        "lat": "-0.2298500",
        "lon": "-78.5249500",
        "pop": 2781641
    },
    {
        "name": "Brisbane",
        "country": "AU",
        "lat": "-27.4679400",
        "lon": "153.0280900",
        "pop": 2780063
    },
    {
        "name": "Luanda",
        "country": "AO",
        "lat": "-8.8368200",
        "lon": "13.2343200",
        "pop": 2776168
    },
    {
        "name": "Osaka",
        "country": "JP",
        "lat": "34.6937900",
        "lon": "135.5010700",
        "pop": 2753862
    },
    {
        "name": "Linyi",
        "country": "CN",
        "lat": "35.0630600",
        "lon": "118.3427800",
        "pop": 2743843
    },
    {
        "name": "Baoding",
        "country": "CN",
        "lat": "38.8728800",
        "lon": "115.4624600",
        "pop": 2739887
    },
    {
        "name": "Kaohsiung",
        "country": "TW",
        "lat": "22.6162600",
        "lon": "120.3133300",
        "pop": 2737660
    },
    {
        "name": "Brooklyn",
        "country": "US",
        "lat": "40.6501000",
        "lon": "-73.9495800",
        "pop": 2736074
    },
    {
        "name": "Guayaquil",
        "country": "EC",
        "lat": "-2.1961600",
        "lon": "-79.8862100",
        "pop": 2723665
    },
    {
        "name": "Belo Horizonte",
        "country": "BR",
        "lat": "-19.9208300",
        "lon": "-43.9377800",
        "pop": 2721564
    },
    {
        "name": "Salvador",
        "country": "BR",
        "lat": "-12.9756300",
        "lon": "-38.4909600",
        "pop": 2711840
    },
    {
        "name": "Abuja",
        "country": "NG",
        "lat": "9.0578500",
        "lon": "7.4950800",
        "pop": 2690000
    },
    {
        "name": "Gazipur",
        "country": "BD",
        "lat": "23.9984400",
        "lon": "90.4223400",
        "pop": 2674697
    },
    {
        "name": "Chicago",
        "country": "US",
        "lat": "41.8500300",
        "lon": "-87.6500500",
        "pop": 2664452
    },
    {
        "name": "Wenzhou",
        "country": "CN",
        "lat": "27.9994200",
        "lon": "120.6668200",
        "pop": 2650000
    },
    {
        "name": "Dakar",
        "country": "SN",
        "lat": "14.6937000",
        "lon": "-17.4440600",
        "pop": 2646503
    },
    {
        "name": "Haiphong",
        "country": "VN",
        "lat": "20.8648100",
        "lon": "106.6834500",
        "pop": 2625200
    },
    {
        "name": "Yunfu",
        "country": "CN",
        "lat": "22.9278700",
        "lon": "112.0380900",
        "pop": 2612800
    },
    {
        "name": "Mogadishu",
        "country": "SO",
        "lat": "2.0371100",
        "lon": "45.3437500",
        "pop": 2587183
    },
    {
        "name": "Bekasi",
        "country": "ID",
        "lat": "-6.2349000",
        "lon": "106.9896000",
        "pop": 2564940
    },
    {
        "name": "Kumasi",
        "country": "GH",
        "lat": "6.6884800",
        "lon": "-1.6244300",
        "pop": 2544530
    },
    {
        "name": "Gujranwala",
        "country": "PK",
        "lat": "32.1556700",
        "lon": "74.1870500",
        "pop": 2511118
    },
    {
        "name": "Huai'an",
        "country": "CN",
        "lat": "33.5886100",
        "lon": "119.0191700",
        "pop": 2494013
    },
    {
        "name": "Lucknow",
        "country": "IN",
        "lat": "26.8392800",
        "lon": "80.9231300",
        "pop": 2472011
    },
    {
        "name": "Bandung",
        "country": "ID",
        "lat": "-6.9222200",
        "lon": "107.6069400",
        "pop": 2444160
    },
    {
        "name": "Medan",
        "country": "ID",
        "lat": "3.5833300",
        "lon": "98.6666700",
        "pop": 2435252
    },
    {
        "name": "Ouagadougou",
        "country": "BF",
        "lat": "12.3656600",
        "lon": "-1.5338800",
        "pop": 2415266
    },
    {
        "name": "Nagpur",
        "country": "IN",
        "lat": "21.1463100",
        "lon": "79.0849100",
        "pop": 2405665
    },
    {
        "name": "Fortaleza",
        "country": "BR",
        "lat": "-3.7172200",
        "lon": "-38.5430600",
        "pop": 2400000
    },
    {
        "name": "Cali",
        "country": "CO",
        "lat": "3.4305400",
        "lon": "-76.5199000",
        "pop": 2392877
    },
    {
        "name": "Daegu",
        "country": "KR",
        "lat": "35.8702800",
        "lon": "128.5911100",
        "pop": 2365523
    },
    {
        "name": "Algiers",
        "country": "DZ",
        "lat": "36.7322500",
        "lon": "3.0874600",
        "pop": 2364230
    },
    {
        "name": "Nanchang",
        "country": "CN",
        "lat": "28.6839600",
        "lon": "115.8530600",
        "pop": 2357839
    },
    {
        "name": "Hohhot",
        "country": "CN",
        "lat": "40.8105600",
        "lon": "111.6522200",
        "pop": 2350000
    },
    {
        "name": "Nagoya",
        "country": "JP",
        "lat": "35.1814700",
        "lon": "136.9064100",
        "pop": 2332176
    },
    {
        "name": "Rome",
        "country": "IT",
        "lat": "41.8919300",
        "lon": "12.5113300",
        "pop": 2318895
    },
    {
        "name": "Queens",
        "country": "US",
        "lat": "40.6814900",
        "lon": "-73.8365200",
        "pop": 2316841
    },
    {
        "name": "Houston",
        "country": "US",
        "lat": "29.7632800",
        "lon": "-95.3632700",
        "pop": 2314157
    },
    {
        "name": "Perth",
        "country": "AU",
        "lat": "-31.9522400",
        "lon": "115.8614000",
        "pop": 2309338
    },
    {
        "name": "Mashhad",
        "country": "IR",
        "lat": "36.2980700",
        "lon": "59.6056700",
        "pop": 2307177
    },
    {
        "name": "Shaoxing",
        "country": "CN",
        "lat": "30.0023700",
        "lon": "120.5786400",
        "pop": 2300000
    },
    {
        "name": "Nantong",
        "country": "CN",
        "lat": "32.0302800",
        "lon": "120.8747200",
        "pop": 2273326
    },
    {
        "name": "Yantai",
        "country": "CN",
        "lat": "37.4764900",
        "lon": "121.4408100",
        "pop": 2227733
    },
    {
        "name": "Lubumbashi",
        "country": "CD",
        "lat": "-11.6608900",
        "lon": "27.4793800",
        "pop": 2221925
    },
    {
        "name": "Manaus",
        "country": "BR",
        "lat": "-3.1019400",
        "lon": "-60.0250000",
        "pop": 2219580
    },
    {
        "name": "Lusaka",
        "country": "ZM",
        "lat": "-15.4066900",
        "lon": "28.2871300",
        "pop": 2212301
    },
    {
        "name": "Bras\u00edlia",
        "country": "BR",
        "lat": "-15.7797200",
        "lon": "-47.9297200",
        "pop": 2207718
    },
    {
        "name": "Zhuhai",
        "country": "CN",
        "lat": "22.2769400",
        "lon": "113.5677800",
        "pop": 2207090
    },
    {
        "name": "Santo Domingo",
        "country": "DO",
        "lat": "18.4718600",
        "lon": "-69.8923200",
        "pop": 2201941
    },
    {
        "name": "Lom\u00e9",
        "country": "TG",
        "lat": "6.1287400",
        "lon": "1.2215400",
        "pop": 2188376
    },
    {
        "name": "Multan",
        "country": "PK",
        "lat": "30.1967900",
        "lon": "71.4782400",
        "pop": 2169915
    },
    {
        "name": "Havana",
        "country": "CU",
        "lat": "23.1330200",
        "lon": "-82.3830400",
        "pop": 2163824
    },
    {
        "name": "Baotou",
        "country": "CN",
        "lat": "40.6516000",
        "lon": "109.8438900",
        "pop": 2150000
    },
    {
        "name": "Depok",
        "country": "ID",
        "lat": "-6.4000000",
        "lon": "106.8186100",
        "pop": 2145400
    },
    {
        "name": "Paris",
        "country": "FR",
        "lat": "48.8534100",
        "lon": "2.3488000",
        "pop": 2138551
    },
    {
        "name": "Coimbatore",
        "country": "IN",
        "lat": "11.0055500",
        "lon": "76.9661200",
        "pop": 2136916
    },
    {
        "name": "Gaziantep",
        "country": "TR",
        "lat": "37.0594400",
        "lon": "37.3825000",
        "pop": 2130432
    },
    {
        "name": "Qingyang",
        "country": "CN",
        "lat": "35.7097600",
        "lon": "107.6445500",
        "pop": 2125400
    },
    {
        "name": "Port Harcourt",
        "country": "NG",
        "lat": "4.7774200",
        "lon": "7.0134000",
        "pop": 2120000
    },
    {
        "name": "Pretoria",
        "country": "ZA",
        "lat": "-25.7448600",
        "lon": "28.1878300",
        "pop": 2112693
    },
    {
        "name": "C\u00f3rdoba",
        "country": "AR",
        "lat": "-31.4064800",
        "lon": "-64.1885300",
        "pop": 2106734
    },
    {
        "name": "Mbuji-Mayi",
        "country": "CD",
        "lat": "-6.1360300",
        "lon": "23.5897900",
        "pop": 2101332
    },
    {
        "name": "Aleppo",
        "country": "SY",
        "lat": "36.2012400",
        "lon": "37.1611700",
        "pop": 2098210
    },
    {
        "name": "Kunshan",
        "country": "CN",
        "lat": "31.3776200",
        "lon": "120.9543100",
        "pop": 2092496
    },
    {
        "name": "Weifang",
        "country": "CN",
        "lat": "36.7100000",
        "lon": "119.1019400",
        "pop": 2044028
    },
    {
        "name": "Zunyi",
        "country": "CN",
        "lat": "27.6866700",
        "lon": "106.9072200",
        "pop": 2037775
    },
    {
        "name": "La Paz",
        "country": "BO",
        "lat": "-16.5000000",
        "lon": "-68.1500000",
        "pop": 2004652
    },
    {
        "name": "Lianyungang",
        "country": "CN",
        "lat": "34.5984500",
        "lon": "119.2155600",
        "pop": 2001009
    },
    {
        "name": "Medell\u00edn",
        "country": "CO",
        "lat": "6.2450000",
        "lon": "-75.5715100",
        "pop": 1999979
    },
    {
        "name": "Indore",
        "country": "IN",
        "lat": "22.7179200",
        "lon": "75.8333000",
        "pop": 1994397
    },
    {
        "name": "Brazzaville",
        "country": "CG",
        "lat": "-4.2661300",
        "lon": "15.2831800",
        "pop": 1982000
    },
    {
        "name": "Tashkent",
        "country": "UZ",
        "lat": "41.2646500",
        "lon": "69.2162700",
        "pop": 1978028
    },
    {
        "name": "Ganzhou",
        "country": "CN",
        "lat": "25.8466400",
        "lon": "114.9326000",
        "pop": 1977253
    },
    {
        "name": "Almaty",
        "country": "KZ",
        "lat": "43.2524900",
        "lon": "76.9115000",
        "pop": 1977011
    },
    {
        "name": "Khartoum",
        "country": "SD",
        "lat": "15.5517700",
        "lon": "32.5324100",
        "pop": 1974647
    },
    {
        "name": "Sapporo",
        "country": "JP",
        "lat": "43.0666700",
        "lon": "141.3500000",
        "pop": 1973832
    },
    {
        "name": "Accra",
        "country": "GH",
        "lat": "5.5560200",
        "lon": "-0.1969000",
        "pop": 1963264
    },
    {
        "name": "Curitiba",
        "country": "BR",
        "lat": "-25.4277800",
        "lon": "-49.2730600",
        "pop": 1948626
    },
    {
        "name": "Ordos",
        "country": "CN",
        "lat": "39.6086000",
        "lon": "109.7815700",
        "pop": 1940653
    },
    {
        "name": "Sanaa",
        "country": "YE",
        "lat": "15.3545200",
        "lon": "44.2064600",
        "pop": 1937451
    },
    {
        "name": "Conakry",
        "country": "GN",
        "lat": "9.5379500",
        "lon": "-13.6772900",
        "pop": 1928389
    },
    {
        "name": "Tijuana",
        "country": "MX",
        "lat": "32.5027000",
        "lon": "-117.0037100",
        "pop": 1922523
    },
    {
        "name": "Hyderabad",
        "country": "PK",
        "lat": "25.3968900",
        "lon": "68.3771800",
        "pop": 1921275
    },
    {
        "name": "Beirut",
        "country": "LB",
        "lat": "33.8933200",
        "lon": "35.5015700",
        "pop": 1916100
    },
    {
        "name": "Tangerang",
        "country": "ID",
        "lat": "-6.1780600",
        "lon": "106.6300000",
        "pop": 1912679
    },
    {
        "name": "Jieyang",
        "country": "CN",
        "lat": "23.5418000",
        "lon": "116.3658100",
        "pop": 1899394
    },
    {
        "name": "Jilin",
        "country": "CN",
        "lat": "43.8465200",
        "lon": "126.5608000",
        "pop": 1895865
    },
    {
        "name": "Bucharest",
        "country": "RO",
        "lat": "44.4322500",
        "lon": "26.1062600",
        "pop": 1877155
    },
    {
        "name": "Camayenne",
        "country": "GN",
        "lat": "9.5350000",
        "lon": "-13.6877800",
        "pop": 1871242
    },
    {
        "name": "Kakamega",
        "country": "KE",
        "lat": "0.2842200",
        "lon": "34.7522900",
        "pop": 1867579
    },
    {
        "name": "Nanchong",
        "country": "CN",
        "lat": "30.7950800",
        "lon": "106.0847300",
        "pop": 1858875
    },
    {
        "name": "Tainan",
        "country": "TW",
        "lat": "22.9908300",
        "lon": "120.2133300",
        "pop": 1856642
    },
    {
        "name": "Kaduna",
        "country": "NG",
        "lat": "10.5264100",
        "lon": "7.4387900",
        "pop": 1850000
    },
    {
        "name": "Datong",
        "country": "CN",
        "lat": "40.0936100",
        "lon": "113.2913900",
        "pop": 1850000
    },
    {
        "name": "Omdurman",
        "country": "SD",
        "lat": "15.6445300",
        "lon": "32.4777300",
        "pop": 1849659
    },
    {
        "name": "Davao",
        "country": "PH",
        "lat": "7.0730600",
        "lon": "125.6127800",
        "pop": 1848947
    },
    {
        "name": "Hamburg",
        "country": "DE",
        "lat": "53.5507300",
        "lon": "9.9930200",
        "pop": 1845229
    },
    {
        "name": "Th\u0101ne",
        "country": "IN",
        "lat": "19.1970400",
        "lon": "72.9635500",
        "pop": 1841488
    },
    {
        "name": "Iztapalapa",
        "country": "MX",
        "lat": "19.3552900",
        "lon": "-99.0622400",
        "pop": 1835486
    },
    {
        "name": "Santa Cruz de la Sierra",
        "country": "BO",
        "lat": "-17.7862900",
        "lon": "-63.1811700",
        "pop": 1831434
    },
    {
        "name": "Vadodara",
        "country": "IN",
        "lat": "22.2994100",
        "lon": "73.2081200",
        "pop": 1822221
    },
    {
        "name": "Adana",
        "country": "TR",
        "lat": "36.9861500",
        "lon": "35.3253100",
        "pop": 1816750
    },
    {
        "name": "Nanyang",
        "country": "CN",
        "lat": "32.9947200",
        "lon": "112.5327800",
        "pop": 1811812
    },
    {
        "name": "Abu Dhabi",
        "country": "AE",
        "lat": "24.4511800",
        "lon": "54.3969600",
        "pop": 1807000
    },
    {
        "name": "Sharjah",
        "country": "AE",
        "lat": "25.3342000",
        "lon": "55.4122100",
        "pop": 1800000
    },
    {
        "name": "Bhopal",
        "country": "IN",
        "lat": "23.2546900",
        "lon": "77.4028900",
        "pop": 1798218
    },
    {
        "name": "Jiangmen",
        "country": "CN",
        "lat": "22.5833300",
        "lon": "113.0833300",
        "pop": 1795459
    },
    {
        "name": "Diyarbak\u0131r",
        "country": "TR",
        "lat": "37.9136300",
        "lon": "40.2172100",
        "pop": 1791373
    },
    {
        "name": "Benin City",
        "country": "NG",
        "lat": "6.3381500",
        "lon": "5.6257500",
        "pop": 1782000
    },
    {
        "name": "Jiangyin",
        "country": "CN",
        "lat": "31.9110200",
        "lon": "120.2630200",
        "pop": 1779515
    },
    {
        "name": "Fuyang",
        "country": "CN",
        "lat": "32.9000000",
        "lon": "115.8166700",
        "pop": 1768947
    },
    {
        "name": "Montr\u00e9al",
        "country": "CA",
        "lat": "45.5088400",
        "lon": "-73.5878100",
        "pop": 1762949
    },
    {
        "name": "Bayan Nur",
        "country": "CN",
        "lat": "40.7414300",
        "lon": "107.3859900",
        "pop": 1760000
    },
    {
        "name": "Maracaibo",
        "country": "VE",
        "lat": "10.6423200",
        "lon": "-71.6108900",
        "pop": 1752602
    },
    {
        "name": "Chaozhou",
        "country": "CN",
        "lat": "23.6539600",
        "lon": "116.6226200",
        "pop": 1750945
    },
    {
        "name": "Minsk",
        "country": "BY",
        "lat": "53.9001900",
        "lon": "27.5665300",
        "pop": 1742124
    },
    {
        "name": "Budapest",
        "country": "HU",
        "lat": "47.4983500",
        "lon": "19.0404500",
        "pop": 1741041
    },
    {
        "name": "Qingyuan",
        "country": "CN",
        "lat": "23.7000000",
        "lon": "113.0333300",
        "pop": 1738424
    },
    {
        "name": "Tai\u2019an",
        "country": "CN",
        "lat": "36.1852800",
        "lon": "117.1200000",
        "pop": 1735425
    },
    {
        "name": "Rasap\u016bdipalem",
        "country": "IN",
        "lat": "17.7330800",
        "lon": "83.3162200",
        "pop": 1728128
    },
    {
        "name": "Pimpri-Chinchwad",
        "country": "IN",
        "lat": "18.6186700",
        "lon": "73.8037500",
        "pop": 1727692
    },
    {
        "name": "Caloocan City",
        "country": "PH",
        "lat": "14.6495300",
        "lon": "120.9678800",
        "pop": 1712945
    },
    {
        "name": "Warsaw",
        "country": "PL",
        "lat": "52.2297700",
        "lon": "21.0117800",
        "pop": 1702139
    },
    {
        "name": "Soweto",
        "country": "ZA",
        "lat": "-26.2678100",
        "lon": "27.8584900",
        "pop": 1695047
    },
    {
        "name": "Puebla",
        "country": "MX",
        "lat": "19.0477800",
        "lon": "-98.2072300",
        "pop": 1692181
    },
    {
        "name": "Vienna",
        "country": "AT",
        "lat": "48.2084900",
        "lon": "16.3720800",
        "pop": 1691468
    },
    {
        "name": "Barcelona",
        "country": "ES",
        "lat": "41.3887900",
        "lon": "2.1589900",
        "pop": 1686208
    },
    {
        "name": "Patna",
        "country": "IN",
        "lat": "25.5940800",
        "lon": "85.1356300",
        "pop": 1684297
    },
    {
        "name": "Mosul",
        "country": "IQ",
        "lat": "36.3350000",
        "lon": "43.1188900",
        "pop": 1683000
    },
    {
        "name": "Kallakurichi",
        "country": "IN",
        "lat": "11.7337900",
        "lon": "78.9592500",
        "pop": 1682687
    },
    {
        "name": "Kampala",
        "country": "UG",
        "lat": "0.3162800",
        "lon": "32.5821900",
        "pop": 1680600
    },
    {
        "name": "Xining",
        "country": "CN",
        "lat": "36.6255400",
        "lon": "101.7573900",
        "pop": 1677177
    },
    {
        "name": "Changshu",
        "country": "CN",
        "lat": "31.6461500",
        "lon": "120.7422100",
        "pop": 1677050
    },
    {
        "name": "Palembang",
        "country": "ID",
        "lat": "-2.9167300",
        "lon": "104.7458000",
        "pop": 1668848
    },
    {
        "name": "Huainan",
        "country": "CN",
        "lat": "32.6263900",
        "lon": "116.9969400",
        "pop": 1666826
    },
    {
        "name": "Rabat",
        "country": "MA",
        "lat": "34.0132500",
        "lon": "-6.8325500",
        "pop": 1655753
    },
    {
        "name": "Semarang",
        "country": "ID",
        "lat": "-6.9930600",
        "lon": "110.4208300",
        "pop": 1653524
    },
    {
        "name": "Recife",
        "country": "BR",
        "lat": "-8.0538900",
        "lon": "-34.8811100",
        "pop": 1653461
    },
    {
        "name": "Phoenix",
        "country": "US",
        "lat": "33.4483800",
        "lon": "-112.0740400",
        "pop": 1650070
    },
    {
        "name": "Suzhou",
        "country": "CN",
        "lat": "33.6361100",
        "lon": "116.9788900",
        "pop": 1647642
    },
    {
        "name": "Ecatepec de Morelos",
        "country": "MX",
        "lat": "19.6049200",
        "lon": "-99.0606400",
        "pop": 1645352
    },
    {
        "name": "Lu\u2019an",
        "country": "CN",
        "lat": "31.7356100",
        "lon": "116.5168800",
        "pop": 1644344
    },
    {
        "name": "Valencia",
        "country": "VE",
        "lat": "10.1615300",
        "lon": "-68.0004400",
        "pop": 1619470
    },
    {
        "name": "Ludhiana",
        "country": "IN",
        "lat": "30.9120400",
        "lon": "75.8537900",
        "pop": 1618879
    },
    {
        "name": "Yancheng",
        "country": "CN",
        "lat": "33.3575000",
        "lon": "120.1573000",
        "pop": 1615717
    },
    {
        "name": "Novosibirsk",
        "country": "RU",
        "lat": "55.0225900",
        "lon": "82.9317500",
        "pop": 1612833
    },
    {
        "name": "Erbil",
        "country": "IQ",
        "lat": "36.1911700",
        "lon": "44.0094300",
        "pop": 1612700
    },
    {
        "name": "Fukuoka",
        "country": "JP",
        "lat": "33.6000000",
        "lon": "130.4166700",
        "pop": 1612392
    },
    {
        "name": "Taizhou",
        "country": "CN",
        "lat": "32.4906900",
        "lon": "119.9081200",
        "pop": 1607108
    },
    {
        "name": "Daqing",
        "country": "CN",
        "lat": "46.5833300",
        "lon": "125.0000000",
        "pop": 1604027
    },
    {
        "name": "Manila",
        "country": "PH",
        "lat": "14.6042000",
        "lon": "120.9822000",
        "pop": 1600000
    },
    {
        "name": "Wuhu",
        "country": "CN",
        "lat": "31.3525900",
        "lon": "118.4294700",
        "pop": 1598165
    },
    {
        "name": "Santiago de Quer\u00e9taro",
        "country": "MX",
        "lat": "20.5880600",
        "lon": "-100.3880600",
        "pop": 1594212
    },
    {
        "name": "Dazhou",
        "country": "CN",
        "lat": "31.2106000",
        "lon": "107.4630800",
        "pop": 1589435
    },
    {
        "name": "Yangzhou",
        "country": "CN",
        "lat": "32.3972200",
        "lon": "119.4358300",
        "pop": 1584237
    },
    {
        "name": "Le\u00f3n de los Aldama",
        "country": "MX",
        "lat": "21.1290800",
        "lon": "-101.6737400",
        "pop": 1579803
    },
    {
        "name": "Makkah",
        "country": "SA",
        "lat": "21.4266400",
        "lon": "39.8256300",
        "pop": 1578722
    },
    {
        "name": "Philadelphia",
        "country": "US",
        "lat": "39.9523800",
        "lon": "-75.1636200",
        "pop": 1573916
    },
    {
        "name": "Phnom Penh",
        "country": "KH",
        "lat": "11.5624500",
        "lon": "104.9160100",
        "pop": 1573544
    },
    {
        "name": "Guilin",
        "country": "CN",
        "lat": "25.2802200",
        "lon": "110.2963900",
        "pop": 1572300
    },
    {
        "name": "Damascus",
        "country": "SY",
        "lat": "33.5102000",
        "lon": "36.2912800",
        "pop": 1569394
    },
    {
        "name": "Quetta",
        "country": "PK",
        "lat": "30.1841400",
        "lon": "67.0014100",
        "pop": 1565546
    },
    {
        "name": "Zhaoqing",
        "country": "CN",
        "lat": "23.0489300",
        "lon": "112.4609100",
        "pop": 1553109
    },
    {
        "name": "Onitsha",
        "country": "NG",
        "lat": "6.1497800",
        "lon": "6.7856900",
        "pop": 1553000
    },
    {
        "name": "Mianyang",
        "country": "CN",
        "lat": "31.4678400",
        "lon": "104.6816800",
        "pop": 1550000
    },
    {
        "name": "Isfahan",
        "country": "IR",
        "lat": "32.6524600",
        "lon": "51.6746200",
        "pop": 1547164
    },
    {
        "name": "Wanzhou",
        "country": "CN",
        "lat": "30.7645100",
        "lon": "108.3958600",
        "pop": 1545900
    },
    {
        "name": "Harare",
        "country": "ZW",
        "lat": "-17.8277200",
        "lon": "31.0533700",
        "pop": 1542813
    },
    {
        "name": "Monrovia",
        "country": "LR",
        "lat": "6.3005400",
        "lon": "-10.7969000",
        "pop": 1542549
    },
    {
        "name": "Putian",
        "country": "CN",
        "lat": "25.4394400",
        "lon": "119.0102800",
        "pop": 1539389
    },
    {
        "name": "Kawasaki",
        "country": "JP",
        "lat": "35.5205600",
        "lon": "139.7172200",
        "pop": 1538262
    },
    {
        "name": "Shangqiu",
        "country": "CN",
        "lat": "34.4500000",
        "lon": "115.6500000",
        "pop": 1536392
    },
    {
        "name": "Goi\u00e2nia",
        "country": "BR",
        "lat": "-16.6786100",
        "lon": "-49.2538900",
        "pop": 1536097
    },
    {
        "name": "Auckland",
        "country": "NZ",
        "lat": "-36.8485300",
        "lon": "174.7634900",
        "pop": 1530500
    },
    {
        "name": "San Antonio",
        "country": "US",
        "lat": "29.4241200",
        "lon": "-98.4936300",
        "pop": 1526656
    },
    {
        "name": "Kobe",
        "country": "JP",
        "lat": "34.6913000",
        "lon": "135.1830000",
        "pop": 1525152
    },
    {
        "name": "Stockholm",
        "country": "SE",
        "lat": "59.3293800",
        "lon": "18.0687100",
        "pop": 1515017
    },
    {
        "name": "Ciudad Ju\u00e1rez",
        "country": "MX",
        "lat": "31.7202400",
        "lon": "-106.4608400",
        "pop": 1512450
    },
    {
        "name": "C\u1ea7n Th\u01a1",
        "country": "VN",
        "lat": "10.0371100",
        "lon": "105.7882500",
        "pop": 1507187
    },
    {
        "name": "Khulna",
        "country": "BD",
        "lat": "22.8097900",
        "lon": "89.5643900",
        "pop": 1500689
    },
    {
        "name": "Bel\u00e9m",
        "country": "BR",
        "lat": "-1.4558300",
        "lon": "-48.5044400",
        "pop": 1499641
    },
    {
        "name": "Yekaterinburg",
        "country": "RU",
        "lat": "56.8573300",
        "lon": "60.6152900",
        "pop": 1495066
    },
    {
        "name": "Porto Alegre",
        "country": "BR",
        "lat": "-30.0328300",
        "lon": "-51.2301900",
        "pop": 1488252
    },
    {
        "name": "Yinchuan",
        "country": "CN",
        "lat": "38.4680600",
        "lon": "106.2730600",
        "pop": 1487579
    },
    {
        "name": "Manhattan",
        "country": "US",
        "lat": "40.7834300",
        "lon": "-73.9662500",
        "pop": 1487536
    },
    {
        "name": "Nashik",
        "country": "IN",
        "lat": "19.9972700",
        "lon": "73.7909600",
        "pop": 1486053
    },
    {
        "name": "Taizhou",
        "country": "CN",
        "lat": "28.6626600",
        "lon": "121.4331200",
        "pop": 1485502
    },
    {
        "name": "Asunci\u00f3n",
        "country": "PY",
        "lat": "-25.2864600",
        "lon": "-57.6470000",
        "pop": 1482200
    },
    {
        "name": "Yiwu",
        "country": "CN",
        "lat": "29.3150600",
        "lon": "120.0767600",
        "pop": 1481384
    },
    {
        "name": "Zapopan",
        "country": "MX",
        "lat": "20.7211100",
        "lon": "-103.3874200",
        "pop": 1476491
    },
    {
        "name": "Daejeon",
        "country": "KR",
        "lat": "36.3491300",
        "lon": "127.3849300",
        "pop": 1470336
    },
    {
        "name": "Adelaide",
        "country": "AU",
        "lat": "-34.9286600",
        "lon": "138.5986300",
        "pop": 1469163
    },
    {
        "name": "Quanzhou",
        "country": "CN",
        "lat": "24.9138900",
        "lon": "118.5858300",
        "pop": 1469157
    },
    {
        "name": "Madurai",
        "country": "IN",
        "lat": "9.9190000",
        "lon": "78.1195300",
        "pop": 1465625
    },
    {
        "name": "Jinhua",
        "country": "CN",
        "lat": "29.1067800",
        "lon": "119.6442100",
        "pop": 1463990
    },
    {
        "name": "Kyoto",
        "country": "JP",
        "lat": "35.0210700",
        "lon": "135.7538500",
        "pop": 1463723
    },
    {
        "name": "Cixi",
        "country": "CN",
        "lat": "30.1764000",
        "lon": "121.2457000",
        "pop": 1457510
    },
    {
        "name": "Changde",
        "country": "CN",
        "lat": "29.0320500",
        "lon": "111.6984400",
        "pop": 1457419
    },
    {
        "name": "Kuala Lumpur",
        "country": "MY",
        "lat": "3.1412000",
        "lon": "101.6865300",
        "pop": 1453975
    },
    {
        "name": "Kaifeng",
        "country": "CN",
        "lat": "34.7986000",
        "lon": "114.3074200",
        "pop": 1451741
    },
    {
        "name": "Anshan",
        "country": "CN",
        "lat": "41.1236100",
        "lon": "122.9900000",
        "pop": 1450000
    },
    {
        "name": "Karaj",
        "country": "IR",
        "lat": "35.8326600",
        "lon": "50.9915500",
        "pop": 1448075
    },
    {
        "name": "Kathmandu",
        "country": "NP",
        "lat": "27.7016900",
        "lon": "85.3206000",
        "pop": 1442271
    },
    {
        "name": "Baoji",
        "country": "CN",
        "lat": "34.3677500",
        "lon": "107.2370500",
        "pop": 1437802
    },
    {
        "name": "Suqian",
        "country": "CN",
        "lat": "33.9491700",
        "lon": "118.2958300",
        "pop": 1437685
    },
    {
        "name": "Liuzhou",
        "country": "CN",
        "lat": "24.3240500",
        "lon": "109.4069800",
        "pop": 1436599
    },
    {
        "name": "Tirunelveli",
        "country": "IN",
        "lat": "8.7274200",
        "lon": "77.6838000",
        "pop": 1435844
    },
    {
        "name": "Kayseri",
        "country": "TR",
        "lat": "38.7322200",
        "lon": "35.4852800",
        "pop": 1434357
    },
    {
        "name": "Kharkiv",
        "country": "UA",
        "lat": "49.9817700",
        "lon": "36.2547500",
        "pop": 1433886
    },
    {
        "name": "Konya",
        "country": "TR",
        "lat": "37.8713500",
        "lon": "32.4846400",
        "pop": 1433861
    },
    {
        "name": "Zhangjiagang",
        "country": "CN",
        "lat": "31.8650000",
        "lon": "120.5388900",
        "pop": 1432044
    },
    {
        "name": "Agra",
        "country": "IN",
        "lat": "27.1833300",
        "lon": "78.0166700",
        "pop": 1430055
    },
    {
        "name": "Tabriz",
        "country": "IR",
        "lat": "38.0800000",
        "lon": "46.2919000",
        "pop": 1424641
    },
    {
        "name": "Makassar",
        "country": "ID",
        "lat": "-5.1486100",
        "lon": "119.4319400",
        "pop": 1423877
    },
    {
        "name": "Jinjiang",
        "country": "CN",
        "lat": "24.8197800",
        "lon": "118.5741500",
        "pop": 1416151
    },
    {
        "name": "Faridabad",
        "country": "IN",
        "lat": "28.4112400",
        "lon": "77.3131600",
        "pop": 1414050
    },
    {
        "name": "Bozhou",
        "country": "CN",
        "lat": "33.8772200",
        "lon": "115.7702800",
        "pop": 1409436
    },
    {
        "name": "Qujing",
        "country": "CN",
        "lat": "25.4833300",
        "lon": "103.7833300",
        "pop": 1408500
    },
    {
        "name": "South Tangerang",
        "country": "ID",
        "lat": "-6.2886200",
        "lon": "106.7178900",
        "pop": 1404785
    },
    {
        "name": "San Diego",
        "country": "US",
        "lat": "32.7157100",
        "lon": "-117.1647200",
        "pop": 1404452
    },
    {
        "name": "Zhanjiang",
        "country": "CN",
        "lat": "21.2339100",
        "lon": "110.3874900",
        "pop": 1400709
    },
    {
        "name": "Fushun",
        "country": "CN",
        "lat": "41.8866900",
        "lon": "123.9436300",
        "pop": 1400646
    },
    {
        "name": "Gwangju",
        "country": "KR",
        "lat": "35.1547200",
        "lon": "126.9155600",
        "pop": 1398538
    },
    {
        "name": "R\u0101jkot",
        "country": "IN",
        "lat": "22.2916100",
        "lon": "70.7932200",
        "pop": 1390640
    },
    {
        "name": "Luoyang",
        "country": "CN",
        "lat": "34.6734500",
        "lon": "112.4368400",
        "pop": 1390581
    },
    {
        "name": "Guadalajara",
        "country": "MX",
        "lat": "20.6773800",
        "lon": "-103.3474900",
        "pop": 1385629
    },
    {
        "name": "The Bronx",
        "country": "US",
        "lat": "40.8498500",
        "lon": "-73.8664100",
        "pop": 1385108
    },
    {
        "name": "Guankou",
        "country": "CN",
        "lat": "28.1586100",
        "lon": "113.6270900",
        "pop": 1380000
    },
    {
        "name": "Hu\u1ebf",
        "country": "VN",
        "lat": "16.4619000",
        "lon": "107.5954600",
        "pop": 1380000
    },
    {
        "name": "Milan",
        "country": "IT",
        "lat": "45.4642700",
        "lon": "9.1895100",
        "pop": 1371498
    },
    {
        "name": "Najafgarh",
        "country": "IN",
        "lat": "28.6092200",
        "lon": "76.9798200",
        "pop": 1365000
    },
    {
        "name": "N'Djamena",
        "country": "TD",
        "lat": "12.1067200",
        "lon": "15.0444000",
        "pop": 1359526
    },
    {
        "name": "Handan",
        "country": "CN",
        "lat": "36.6099900",
        "lon": "114.4876400",
        "pop": 1358318
    },
    {
        "name": "Bannu",
        "country": "PK",
        "lat": "32.9852700",
        "lon": "70.6040300",
        "pop": 1357890
    },
    {
        "name": "Yichang",
        "country": "CN",
        "lat": "30.7144400",
        "lon": "111.2847200",
        "pop": 1350150
    },
    {
        "name": "Antananarivo",
        "country": "MG",
        "lat": "-18.9136800",
        "lon": "47.5361300",
        "pop": 1349501
    },
    {
        "name": "Heze",
        "country": "CN",
        "lat": "35.2392900",
        "lon": "115.4735800",
        "pop": 1346717
    },
    {
        "name": "Antalya",
        "country": "TR",
        "lat": "36.9081200",
        "lon": "30.6955600",
        "pop": 1344000
    },
    {
        "name": "Abobo",
        "country": "CI",
        "lat": "5.4161300",
        "lon": "-4.0159000",
        "pop": 1340083
    },
    {
        "name": "Jamshedpur",
        "country": "IN",
        "lat": "22.8027800",
        "lon": "86.1854500",
        "pop": 1339438
    },
    {
        "name": "Douala",
        "country": "CM",
        "lat": "4.0482700",
        "lon": "9.7042800",
        "pop": 1338082
    },
    {
        "name": "Basrah",
        "country": "IQ",
        "lat": "30.5085200",
        "lon": "47.7804000",
        "pop": 1326564
    },
    {
        "name": "Dallas",
        "country": "US",
        "lat": "32.7830600",
        "lon": "-96.8066700",
        "pop": 1326087
    },
    {
        "name": "Saitama",
        "country": "JP",
        "lat": "35.9080700",
        "lon": "139.6565700",
        "pop": 1324854
    },
    {
        "name": "Gorakhpur",
        "country": "IN",
        "lat": "29.4476800",
        "lon": "75.6720600",
        "pop": 1324570
    },
    {
        "name": "Niamey",
        "country": "NE",
        "lat": "13.5136600",
        "lon": "2.1098000",
        "pop": 1323691
    },
    {
        "name": "Liupanshui",
        "country": "CN",
        "lat": "26.5944400",
        "lon": "104.8333300",
        "pop": 1320825
    },
    {
        "name": "Taguig",
        "country": "PH",
        "lat": "14.5243000",
        "lon": "121.0792000",
        "pop": 1308085
    },
    {
        "name": "Maoming",
        "country": "CN",
        "lat": "21.6662500",
        "lon": "110.9136400",
        "pop": 1307802
    },
    {
        "name": "Calgary",
        "country": "CA",
        "lat": "51.0501100",
        "lon": "-114.0852900",
        "pop": 1306784
    },
    {
        "name": "Tripoli",
        "country": "LY",
        "lat": "32.8874300",
        "lon": "13.1873300",
        "pop": 1302947
    },
    {
        "name": "Callao",
        "country": "PE",
        "lat": "-12.0516200",
        "lon": "-77.1345200",
        "pop": 1300000
    },
    {
        "name": "Madinah",
        "country": "SA",
        "lat": "24.4686100",
        "lon": "39.6141700",
        "pop": 1300000
    },
    {
        "name": "Yaound\u00e9",
        "country": "CM",
        "lat": "3.8666700",
        "lon": "11.5166700",
        "pop": 1299369
    },
    {
        "name": "Qinzhou",
        "country": "CN",
        "lat": "21.9824700",
        "lon": "108.6506100",
        "pop": 1296300
    },
    {
        "name": "Luohe",
        "country": "CN",
        "lat": "33.5639400",
        "lon": "114.0427200",
        "pop": 1294974
    },
    {
        "name": "Xiangyang",
        "country": "CN",
        "lat": "32.0422000",
        "lon": "112.1447900",
        "pop": 1294733
    },
    {
        "name": "Yangjiang",
        "country": "CN",
        "lat": "21.8556300",
        "lon": "111.9627200",
        "pop": 1292987
    },
    {
        "name": "Yixing",
        "country": "CN",
        "lat": "31.3605900",
        "lon": "119.8201600",
        "pop": 1285785
    },
    {
        "name": "Pimpri",
        "country": "IN",
        "lat": "18.6229200",
        "lon": "73.8069600",
        "pop": 1284606
    },
    {
        "name": "Da Nang",
        "country": "VN",
        "lat": "16.0677800",
        "lon": "108.2208300",
        "pop": 1276000
    },
    {
        "name": "Amman",
        "country": "JO",
        "lat": "31.9552200",
        "lon": "35.9450300",
        "pop": 1275857
    },
    {
        "name": "Budta",
        "country": "PH",
        "lat": "7.2041700",
        "lon": "124.4397200",
        "pop": 1273715
    },
    {
        "name": "Belgrade",
        "country": "RS",
        "lat": "44.8040100",
        "lon": "20.4651300",
        "pop": 1273651
    },
    {
        "name": "Bi\u00ean H\u00f2a",
        "country": "VN",
        "lat": "10.9446900",
        "lon": "106.8243200",
        "pop": 1272235
    },
    {
        "name": "Montevideo",
        "country": "UY",
        "lat": "-34.9032800",
        "lon": "-56.1881600",
        "pop": 1270737
    },
    {
        "name": "Xuchang",
        "country": "CN",
        "lat": "34.0318900",
        "lon": "113.8629900",
        "pop": 1265536
    },
    {
        "name": "Kaly\u0101n",
        "country": "IN",
        "lat": "19.2437000",
        "lon": "73.1355400",
        "pop": 1262255
    },
    {
        "name": "Zigong",
        "country": "CN",
        "lat": "29.3416200",
        "lon": "104.7768900",
        "pop": 1262064
    },
    {
        "name": "Munich",
        "country": "DE",
        "lat": "48.1374300",
        "lon": "11.5754900",
        "pop": 1260391
    },
    {
        "name": "Nizhniy Novgorod",
        "country": "RU",
        "lat": "56.3286700",
        "lon": "44.0020500",
        "pop": 1259013
    },
    {
        "name": "Jepara",
        "country": "ID",
        "lat": "-6.5924000",
        "lon": "110.6710000",
        "pop": 1257912
    },
    {
        "name": "Maputo",
        "country": "MZ",
        "lat": "-25.9655300",
        "lon": "32.5832200",
        "pop": 1254837
    },
    {
        "name": "Xuzhou",
        "country": "CN",
        "lat": "34.2044200",
        "lon": "117.2838600",
        "pop": 1253991
    },
    {
        "name": "Dammam",
        "country": "SA",
        "lat": "26.4344200",
        "lon": "50.1032600",
        "pop": 1252523
    },
    {
        "name": "Neijiang",
        "country": "CN",
        "lat": "29.5835400",
        "lon": "105.0621600",
        "pop": 1251095
    },
    {
        "name": "Shiraz",
        "country": "IR",
        "lat": "29.6103100",
        "lon": "52.5311300",
        "pop": 1249942
    },
    {
        "name": "Heshan",
        "country": "CN",
        "lat": "28.5693800",
        "lon": "112.3473300",
        "pop": 1249807
    },
    {
        "name": "Dombivali",
        "country": "IN",
        "lat": "19.2166700",
        "lon": "73.0833300",
        "pop": 1247327
    },
    {
        "name": "Kananga",
        "country": "CD",
        "lat": "-5.8962400",
        "lon": "22.4165900",
        "pop": 1247168
    },
    {
        "name": "Kazan",
        "country": "RU",
        "lat": "55.7887400",
        "lon": "49.1221400",
        "pop": 1243500
    },
    {
        "name": "Jining",
        "country": "CN",
        "lat": "35.4050000",
        "lon": "116.5813900",
        "pop": 1241012
    },
    {
        "name": "Barquisimeto",
        "country": "VE",
        "lat": "10.0647000",
        "lon": "-69.3570300",
        "pop": 1240714
    },
    {
        "name": "Shubr\u0101 al Khaymah",
        "country": "EG",
        "lat": "30.1251100",
        "lon": "31.2505300",
        "pop": 1240289
    },
    {
        "name": "Port-au-Prince",
        "country": "HT",
        "lat": "18.5434900",
        "lon": "-72.3388100",
        "pop": 1234742
    },
    {
        "name": "Xinyang",
        "country": "CN",
        "lat": "32.1227800",
        "lon": "114.0655600",
        "pop": 1230042
    },
    {
        "name": "Liaocheng",
        "country": "CN",
        "lat": "36.4506400",
        "lon": "116.0024700",
        "pop": 1229768
    },
    {
        "name": "Jinzhong",
        "country": "CN",
        "lat": "37.6840300",
        "lon": "112.7547100",
        "pop": 1226617
    },
    {
        "name": "Meerut",
        "country": "IN",
        "lat": "28.9800200",
        "lon": "77.7063600",
        "pop": 1223184
    },
    {
        "name": "Vir\u0101r",
        "country": "IN",
        "lat": "19.4559100",
        "lon": "72.8113600",
        "pop": 1222390
    },
    {
        "name": "Nowrangapur",
        "country": "IN",
        "lat": "19.2311400",
        "lon": "82.5482600",
        "pop": 1220946
    },
    {
        "name": "Karbala",
        "country": "IQ",
        "lat": "32.6160300",
        "lon": "44.0248800",
        "pop": 1218732
    },
    {
        "name": "Changzhi",
        "country": "CN",
        "lat": "36.1838900",
        "lon": "113.1052800",
        "pop": 1214940
    },
    {
        "name": "Tianshui",
        "country": "CN",
        "lat": "34.5795200",
        "lon": "105.7423800",
        "pop": 1212791
    },
    {
        "name": "Mombasa",
        "country": "KE",
        "lat": "-4.0546600",
        "lon": "39.6635900",
        "pop": 1208333
    },
    {
        "name": "Mandalay",
        "country": "MM",
        "lat": "21.9747300",
        "lon": "96.0835900",
        "pop": 1208099
    },
    {
        "name": "Srinagar",
        "country": "IN",
        "lat": "34.0856500",
        "lon": "74.8055500",
        "pop": 1206419
    },
    {
        "name": "Barranquilla",
        "country": "CO",
        "lat": "10.9685400",
        "lon": "-74.7813200",
        "pop": 1206319
    },
    {
        "name": "Chelyabinsk",
        "country": "RU",
        "lat": "55.1611000",
        "lon": "61.4287700",
        "pop": 1202371
    },
    {
        "name": "M\u00e9rida",
        "country": "MX",
        "lat": "20.9670000",
        "lon": "-89.6231800",
        "pop": 1201000
    },
    {
        "name": "Hiroshima",
        "country": "JP",
        "lat": "34.4000000",
        "lon": "132.4500000",
        "pop": 1200754
    },
    {
        "name": "Santiago de los Caballeros",
        "country": "DO",
        "lat": "19.4503600",
        "lon": "-70.6908500",
        "pop": 1200000
    },
    {
        "name": "Shymkent",
        "country": "KZ",
        "lat": "42.3098800",
        "lon": "69.6004200",
        "pop": 1200000
    },
    {
        "name": "Weinan",
        "country": "CN",
        "lat": "34.5035500",
        "lon": "109.5089100",
        "pop": 1199290
    },
    {
        "name": "Gh\u0101zi\u0101b\u0101d",
        "country": "IN",
        "lat": "28.6653500",
        "lon": "77.4391500",
        "pop": 1199191
    },
    {
        "name": "Matola",
        "country": "MZ",
        "lat": "-25.9622200",
        "lon": "32.4588900",
        "pop": 1198988
    },
    {
        "name": "Dhanbad",
        "country": "IN",
        "lat": "23.7975900",
        "lon": "86.4299200",
        "pop": 1196214
    },
    {
        "name": "Fes",
        "country": "MA",
        "lat": "34.0331300",
        "lon": "-5.0002800",
        "pop": 1191905
    },
    {
        "name": "Suwon",
        "country": "KR",
        "lat": "37.2911100",
        "lon": "127.0088900",
        "pop": 1191063
    },
    {
        "name": "Gustavo Adolfo Madero",
        "country": "MX",
        "lat": "19.4939200",
        "lon": "-99.1107500",
        "pop": 1185772
    },
    {
        "name": "Nouakchott",
        "country": "MR",
        "lat": "18.0858100",
        "lon": "-15.9785000",
        "pop": 1184530
    },
    {
        "name": "Kisangani",
        "country": "CD",
        "lat": "0.5152800",
        "lon": "25.1909900",
        "pop": 1181788
    },
    {
        "name": "Jiaxing",
        "country": "CN",
        "lat": "30.7522000",
        "lon": "120.7500000",
        "pop": 1180000
    },
    {
        "name": "Aurangabad",
        "country": "IN",
        "lat": "19.8775700",
        "lon": "75.3422600",
        "pop": 1175116
    },
    {
        "name": "Omsk",
        "country": "RU",
        "lat": "54.9924400",
        "lon": "73.3685900",
        "pop": 1172070
    },
    {
        "name": "Guarulhos",
        "country": "BR",
        "lat": "-23.4627800",
        "lon": "-46.5333300",
        "pop": 1169577
    },
    {
        "name": "Bandar Lampung",
        "country": "ID",
        "lat": "-5.4291700",
        "lon": "105.2611100",
        "pop": 1166066
    },
    {
        "name": "Prague",
        "country": "CZ",
        "lat": "50.0880400",
        "lon": "14.4207600",
        "pop": 1165581
    },
    {
        "name": "Varanasi",
        "country": "IN",
        "lat": "25.3166800",
        "lon": "83.0104100",
        "pop": 1164404
    },
    {
        "name": "Batam",
        "country": "ID",
        "lat": "1.1493700",
        "lon": "104.0249100",
        "pop": 1164352
    },
    {
        "name": "Jiujiang",
        "country": "CN",
        "lat": "29.7047500",
        "lon": "116.0020600",
        "pop": 1164268
    },
    {
        "name": "Samara",
        "country": "RU",
        "lat": "53.2076700",
        "lon": "50.1355300",
        "pop": 1163399
    },
    {
        "name": "Aba",
        "country": "NG",
        "lat": "5.1065800",
        "lon": "7.3666700",
        "pop": 1160000
    },
    {
        "name": "Amritsar",
        "country": "IN",
        "lat": "31.6223400",
        "lon": "74.8753400",
        "pop": 1159227
    },
    {
        "name": "Birmingham",
        "country": "GB",
        "lat": "52.4814200",
        "lon": "-1.8998300",
        "pop": 1157603
    },
    {
        "name": "Copenhagen",
        "country": "DK",
        "lat": "55.6759400",
        "lon": "12.5655300",
        "pop": 1153615
    },
    {
        "name": "Sofia",
        "country": "BG",
        "lat": "42.6975100",
        "lon": "23.3241500",
        "pop": 1152556
    },
    {
        "name": "Anyang",
        "country": "CN",
        "lat": "36.0960000",
        "lon": "114.3827800",
        "pop": 1146839
    },
    {
        "name": "Vijayawada",
        "country": "IN",
        "lat": "16.5074500",
        "lon": "80.6466000",
        "pop": 1143232
    },
    {
        "name": "Yerevan",
        "country": "AM",
        "lat": "40.1776500",
        "lon": "44.5126000",
        "pop": 1141100
    },
    {
        "name": "Bijie",
        "country": "CN",
        "lat": "27.3019300",
        "lon": "105.2862700",
        "pop": 1137383
    },
    {
        "name": "Monterrey",
        "country": "MX",
        "lat": "25.6843500",
        "lon": "-100.3172100",
        "pop": 1135512
    },
    {
        "name": "Kigali",
        "country": "RW",
        "lat": "-1.9499500",
        "lon": "30.0588500",
        "pop": 1132686
    },
    {
        "name": "Rostov-na-Donu",
        "country": "RU",
        "lat": "47.2199700",
        "lon": "39.7076900",
        "pop": 1130305
    },
    {
        "name": "Zhuzhou",
        "country": "CN",
        "lat": "27.8333300",
        "lon": "113.1500000",
        "pop": 1129687
    },
    {
        "name": "Bogor",
        "country": "ID",
        "lat": "-6.5944400",
        "lon": "106.7891700",
        "pop": 1127408
    },
    {
        "name": "Malingao",
        "country": "PH",
        "lat": "7.1608300",
        "lon": "124.4750000",
        "pop": 1121974
    },
    {
        "name": "Touba",
        "country": "SN",
        "lat": "14.8500000",
        "lon": "-15.8833300",
        "pop": 1120824
    },
    {
        "name": "Ufa",
        "country": "RU",
        "lat": "54.7430600",
        "lon": "55.9677900",
        "pop": 1120547
    },
    {
        "name": "Ranchi",
        "country": "IN",
        "lat": "23.3431600",
        "lon": "85.3094000",
        "pop": 1120374
    },
    {
        "name": "Baku",
        "country": "AZ",
        "lat": "40.3776700",
        "lon": "49.8920100",
        "pop": 1116513
    },
    {
        "name": "Shangrao",
        "country": "CN",
        "lat": "28.4517900",
        "lon": "117.9428700",
        "pop": 1116486
    },
    {
        "name": "Lilongwe",
        "country": "MW",
        "lat": "-13.9669200",
        "lon": "33.7872500",
        "pop": 1115815
    },
    {
        "name": "Huaibei",
        "country": "CN",
        "lat": "33.9744400",
        "lon": "116.7916700",
        "pop": 1113321
    },
    {
        "name": "Maiduguri",
        "country": "NG",
        "lat": "11.8469200",
        "lon": "13.1571200",
        "pop": 1110000
    },
    {
        "name": "Meishan",
        "country": "CN",
        "lat": "30.0439200",
        "lon": "103.8369600",
        "pop": 1107742
    },
    {
        "name": "Mwanza",
        "country": "TZ",
        "lat": "-2.5166700",
        "lon": "32.9000000",
        "pop": 1104521
    },
    {
        "name": "Sendai",
        "country": "JP",
        "lat": "38.2666700",
        "lon": "140.8666700",
        "pop": 1096704
    },
    {
        "name": "Ulsan",
        "country": "KR",
        "lat": "35.5372200",
        "lon": "129.3166700",
        "pop": 1095014
    },
    {
        "name": "Krasnoyarsk",
        "country": "RU",
        "lat": "56.0374200",
        "lon": "92.9313600",
        "pop": 1090811
    },
    {
        "name": "Fuzhou",
        "country": "CN",
        "lat": "27.9599900",
        "lon": "116.3333300",
        "pop": 1089888
    },
    {
        "name": "Guigang",
        "country": "CN",
        "lat": "23.1160300",
        "lon": "109.5947200",
        "pop": 1086327
    },
    {
        "name": "Pekanbaru",
        "country": "ID",
        "lat": "0.5166700",
        "lon": "101.4416700",
        "pop": 1085000
    },
    {
        "name": "Oslo",
        "country": "NO",
        "lat": "59.9127300",
        "lon": "10.7460900",
        "pop": 1082575
    },
    {
        "name": "Jabalpur",
        "country": "IN",
        "lat": "23.1669700",
        "lon": "79.9500600",
        "pop": 1081677
    },
    {
        "name": "Ilorin",
        "country": "NG",
        "lat": "8.4966400",
        "lon": "4.5421400",
        "pop": 1080000
    },
    {
        "name": "Aden",
        "country": "YE",
        "lat": "12.7795700",
        "lon": "45.0385200",
        "pop": 1079670
    },
    {
        "name": "Ciudad Nezahualcoyotl",
        "country": "MX",
        "lat": "19.4006100",
        "lon": "-99.0148300",
        "pop": 1077208
    },
    {
        "name": "Hengyang",
        "country": "CN",
        "lat": "26.8894600",
        "lon": "112.6188800",
        "pop": 1075516
    },
    {
        "name": "Prayagraj",
        "country": "IN",
        "lat": "25.4447800",
        "lon": "81.8432200",
        "pop": 1073438
    },
    {
        "name": "Visakhapatnam",
        "country": "IN",
        "lat": "17.6800900",
        "lon": "83.2016100",
        "pop": 1063178
    },
    {
        "name": "Goyang-si",
        "country": "KR",
        "lat": "37.6563900",
        "lon": "126.8350000",
        "pop": 1061752
    },
    {
        "name": "Yulin",
        "country": "CN",
        "lat": "22.6305000",
        "lon": "110.1468600",
        "pop": 1056743
    },
    {
        "name": "Jodhpur",
        "country": "IN",
        "lat": "26.2684100",
        "lon": "73.0059400",
        "pop": 1056191
    },
    {
        "name": "Gwalior",
        "country": "IN",
        "lat": "26.2298300",
        "lon": "78.1733700",
        "pop": 1054420
    },
    {
        "name": "Jingzhou",
        "country": "CN",
        "lat": "30.3502800",
        "lon": "112.1902800",
        "pop": 1052282
    },
    {
        "name": "Port Elizabeth",
        "country": "ZA",
        "lat": "-33.9610900",
        "lon": "25.6149400",
        "pop": 1050078
    },
    {
        "name": "Tbilisi",
        "country": "GE",
        "lat": "41.6914300",
        "lon": "44.8341200",
        "pop": 1049498
    },
    {
        "name": "Voronezh",
        "country": "RU",
        "lat": "51.6683300",
        "lon": "39.1920400",
        "pop": 1047549
    },
    {
        "name": "Xinxiang",
        "country": "CN",
        "lat": "35.1903300",
        "lon": "113.8015100",
        "pop": 1047088
    },
    {
        "name": "Yichun",
        "country": "CN",
        "lat": "27.8333300",
        "lon": "114.4000000",
        "pop": 1045952
    },
    {
        "name": "Jos",
        "country": "NG",
        "lat": "9.9284900",
        "lon": "8.8921200",
        "pop": 1040000
    },
    {
        "name": "Sokoto",
        "country": "NG",
        "lat": "13.0626900",
        "lon": "5.2432200",
        "pop": 1040000
    },
    {
        "name": "Tangier",
        "country": "MA",
        "lat": "35.7672700",
        "lon": "-5.7997500",
        "pop": 1035141
    },
    {
        "name": "Xianyang",
        "country": "CN",
        "lat": "34.3377800",
        "lon": "108.7026100",
        "pop": 1034081
    },
    {
        "name": "Mexicali",
        "country": "MX",
        "lat": "32.6278100",
        "lon": "-115.4544600",
        "pop": 1032686
    },
    {
        "name": "Pointe-Noire",
        "country": "CG",
        "lat": "-4.7760900",
        "lon": "11.8635200",
        "pop": 1032000
    },
    {
        "name": "Macei\u00f3",
        "country": "BR",
        "lat": "-9.6658300",
        "lon": "-35.7352800",
        "pop": 1031597
    },
    {
        "name": "Campinas",
        "country": "BR",
        "lat": "-22.9055600",
        "lon": "-47.0608300",
        "pop": 1031554
    },
    {
        "name": "Sanya",
        "country": "CN",
        "lat": "18.2543500",
        "lon": "109.5094700",
        "pop": 1031396
    },
    {
        "name": "Rangpur",
        "country": "BD",
        "lat": "25.7466400",
        "lon": "89.2516600",
        "pop": 1031388
    },
    {
        "name": "Kirkuk",
        "country": "IQ",
        "lat": "35.4680600",
        "lon": "44.3922200",
        "pop": 1031000
    },
    {
        "name": "Comilla",
        "country": "BD",
        "lat": "23.4618600",
        "lon": "91.1850300",
        "pop": 1030000
    },
    {
        "name": "Shaoguan",
        "country": "CN",
        "lat": "24.8000000",
        "lon": "113.5833300",
        "pop": 1028460
    },
    {
        "name": "Howrah",
        "country": "IN",
        "lat": "22.5768800",
        "lon": "88.3185700",
        "pop": 1027672
    },
    {
        "name": "Raipur",
        "country": "IN",
        "lat": "21.2333300",
        "lon": "81.6333300",
        "pop": 1027264
    },
    {
        "name": "Changwon",
        "country": "KR",
        "lat": "35.2280600",
        "lon": "128.6811100",
        "pop": 1025702
    },
    {
        "name": "Longyan",
        "country": "CN",
        "lat": "25.0748500",
        "lon": "117.0177500",
        "pop": 1025087
    },
    {
        "name": "Dublin",
        "country": "IE",
        "lat": "53.3330600",
        "lon": "-6.2488900",
        "pop": 1024027
    },
    {
        "name": "Tiruchirappalli",
        "country": "IN",
        "lat": "10.8155000",
        "lon": "78.6965100",
        "pop": 1022518
    },
    {
        "name": "Yongzhou",
        "country": "CN",
        "lat": "26.4238900",
        "lon": "111.6130600",
        "pop": 1020715
    },
    {
        "name": "Brussels",
        "country": "BE",
        "lat": "50.8504500",
        "lon": "4.3487800",
        "pop": 1019022
    },
    {
        "name": "Zamboanga",
        "country": "PH",
        "lat": "6.9102800",
        "lon": "122.0738900",
        "pop": 1018849
    },
    {
        "name": "Ottawa",
        "country": "CA",
        "lat": "45.4111700",
        "lon": "-75.6981200",
        "pop": 1017449
    },
    {
        "name": "Huzhou",
        "country": "CN",
        "lat": "30.8703000",
        "lon": "120.0933000",
        "pop": 1015937
    },
    {
        "name": "Odesa",
        "country": "UA",
        "lat": "46.4857200",
        "lon": "30.7438300",
        "pop": 1015826
    },
    {
        "name": "Volgograd",
        "country": "RU",
        "lat": "48.7137800",
        "lon": "44.4976000",
        "pop": 1013533
    },
    {
        "name": "Khartoum North",
        "country": "SD",
        "lat": "15.6492500",
        "lon": "32.5345800",
        "pop": 1012211
    },
    {
        "name": "Edmonton",
        "country": "CA",
        "lat": "53.5501400",
        "lon": "-113.4687100",
        "pop": 1010899
    },
    {
        "name": "Wuwei",
        "country": "CN",
        "lat": "37.9267200",
        "lon": "102.6320200",
        "pop": 1010295
    },
    {
        "name": "Jacksonville",
        "country": "US",
        "lat": "30.3321800",
        "lon": "-81.6556500",
        "pop": 1009833
    },
    {
        "name": "Arequipa",
        "country": "PE",
        "lat": "-16.3989900",
        "lon": "-71.5374700",
        "pop": 1008290
    },
    {
        "name": "Fort Worth",
        "country": "US",
        "lat": "32.7254100",
        "lon": "-97.3208500",
        "pop": 1008106
    },
    {
        "name": "Hanzhong",
        "country": "CN",
        "lat": "33.0750700",
        "lon": "107.0221400",
        "pop": 1006557
    },
    {
        "name": "Hezhou",
        "country": "CN",
        "lat": "24.4035700",
        "lon": "111.5667500",
        "pop": 1005490
    },
    {
        "name": "Kota",
        "country": "IN",
        "lat": "25.1825400",
        "lon": "75.8390700",
        "pop": 1001694
    },
    {
        "name": "Zhu Cheng City",
        "country": "CN",
        "lat": "35.9950200",
        "lon": "119.4025900",
        "pop": 1000000
    },
    {
        "name": "Dongying",
        "country": "CN",
        "lat": "37.4627100",
        "lon": "118.4916500",
        "pop": 998968
    },
    {
        "name": "Luzhou",
        "country": "CN",
        "lat": "28.8903000",
        "lon": "105.4257500",
        "pop": 998900
    },
    {
        "name": "San Jose",
        "country": "US",
        "lat": "37.3393900",
        "lon": "-121.8949600",
        "pop": 997368
    },
    {
        "name": "Sholapur",
        "country": "IN",
        "lat": "17.6715200",
        "lon": "75.9104400",
        "pop": 997281
    },
    {
        "name": "Marrakesh",
        "country": "MA",
        "lat": "31.6341600",
        "lon": "-7.9999400",
        "pop": 995871
    },
    {
        "name": "Guatemala City",
        "country": "GT",
        "lat": "14.6407200",
        "lon": "-90.5132700",
        "pop": 994938
    },
    {
        "name": "Meizhou",
        "country": "CN",
        "lat": "24.2885900",
        "lon": "116.1176800",
        "pop": 992351
    },
    {
        "name": "Yueyang",
        "country": "CN",
        "lat": "29.3745500",
        "lon": "113.0948100",
        "pop": 991465
    },
    {
        "name": "Laiwu",
        "country": "CN",
        "lat": "36.1927800",
        "lon": "117.6569400",
        "pop": 989535
    },
    {
        "name": "Benxi",
        "country": "CN",
        "lat": "41.2886100",
        "lon": "123.7650000",
        "pop": 987717
    },
    {
        "name": "Perm",
        "country": "RU",
        "lat": "58.0104600",
        "lon": "56.2501700",
        "pop": 982419
    },
    {
        "name": "Zaria",
        "country": "NG",
        "lat": "11.1112800",
        "lon": "7.7227000",
        "pop": 980000
    },
    {
        "name": "Chiba",
        "country": "JP",
        "lat": "35.6000000",
        "lon": "140.1166700",
        "pop": 979768
    },
    {
        "name": "Pingdingshan",
        "country": "CN",
        "lat": "33.7384700",
        "lon": "113.3011900",
        "pop": 979130
    },
    {
        "name": "Ciudad Guayana",
        "country": "VE",
        "lat": "8.3512200",
        "lon": "-62.6410200",
        "pop": 978202
    },
    {
        "name": "Sargodha",
        "country": "PK",
        "lat": "32.0858600",
        "lon": "72.6741800",
        "pop": 975886
    },
    {
        "name": "Austin",
        "country": "US",
        "lat": "30.2671500",
        "lon": "-97.7430600",
        "pop": 974447
    },
    {
        "name": "Managua",
        "country": "NI",
        "lat": "12.1328200",
        "lon": "-86.2504000",
        "pop": 973087
    },
    {
        "name": "Bengbu",
        "country": "CN",
        "lat": "32.9408300",
        "lon": "117.3608300",
        "pop": 972784
    },
    {
        "name": "Sal\u00e9",
        "country": "MA",
        "lat": "34.0531000",
        "lon": "-6.7984600",
        "pop": 972299
    },
    {
        "name": "Jerusalem",
        "country": "IL",
        "lat": "31.7690400",
        "lon": "35.2163300",
        "pop": 971800
    },
    {
        "name": "Chandigarh",
        "country": "IN",
        "lat": "30.7362900",
        "lon": "76.7884000",
        "pop": 970602
    },
    {
        "name": "Dnipro",
        "country": "UA",
        "lat": "48.4666400",
        "lon": "35.0406600",
        "pop": 968502
    },
    {
        "name": "Cebu City",
        "country": "PH",
        "lat": "10.3167200",
        "lon": "123.8907100",
        "pop": 965332
    },
    {
        "name": "K\u00f6ln",
        "country": "DE",
        "lat": "50.9333300",
        "lon": "6.9500000",
        "pop": 963395
    },
    {
        "name": "Tiruppur",
        "country": "IN",
        "lat": "11.1154100",
        "lon": "77.3545600",
        "pop": 963173
    },
    {
        "name": "Guwahati",
        "country": "IN",
        "lat": "26.1844000",
        "lon": "91.7458000",
        "pop": 962334
    },
    {
        "name": "Xiangtan",
        "country": "CN",
        "lat": "27.8500000",
        "lon": "112.9000000",
        "pop": 959303
    },
    {
        "name": "Linfen",
        "country": "CN",
        "lat": "36.0888900",
        "lon": "111.5188900",
        "pop": 959198
    },
    {
        "name": "Victoria",
        "country": "HK",
        "lat": "22.2875000",
        "lon": "114.1441700",
        "pop": 956800
    },
    {
        "name": "Zhenjiang",
        "country": "CN",
        "lat": "32.2108600",
        "lon": "119.4550800",
        "pop": 950516
    },
    {
        "name": "Enugu",
        "country": "NG",
        "lat": "6.4413200",
        "lon": "7.4988300",
        "pop": 950000
    },
    {
        "name": "Rosario",
        "country": "AR",
        "lat": "-32.9468200",
        "lon": "-60.6393200",
        "pop": 948312
    },
    {
        "name": "Sul\u0163\u0101nah",
        "country": "SA",
        "lat": "24.4925800",
        "lon": "39.5857200",
        "pop": 946697
    },
    {
        "name": "Huludao",
        "country": "CN",
        "lat": "40.7524300",
        "lon": "120.8355200",
        "pop": 944495
    },
    {
        "name": "Hubballi",
        "country": "IN",
        "lat": "15.3477600",
        "lon": "75.1337800",
        "pop": 943788
    },
    {
        "name": "Kitakyushu",
        "country": "JP",
        "lat": "33.8518100",
        "lon": "130.8503400",
        "pop": 940978
    },
    {
        "name": "Taiz",
        "country": "YE",
        "lat": "13.5795200",
        "lon": "44.0209100",
        "pop": 940600
    },
    {
        "name": "Kingston",
        "country": "JM",
        "lat": "17.9970200",
        "lon": "-76.7935800",
        "pop": 937700
    },
    {
        "name": "Baoshan",
        "country": "CN",
        "lat": "25.1162600",
        "lon": "99.1636600",
        "pop": 935618
    },
    {
        "name": "Rui\u2019an",
        "country": "CN",
        "lat": "27.7760500",
        "lon": "120.6585900",
        "pop": 927383
    },
    {
        "name": "Chihuahua",
        "country": "MX",
        "lat": "28.6352800",
        "lon": "-106.0888900",
        "pop": 925762
    },
    {
        "name": "Nay Pyi Taw",
        "country": "MM",
        "lat": "19.7450000",
        "lon": "96.1297200",
        "pop": 925000
    },
    {
        "name": "Mysuru",
        "country": "IN",
        "lat": "12.2979100",
        "lon": "76.6392500",
        "pop": 920550
    },
    {
        "name": "Trujillo",
        "country": "PE",
        "lat": "-8.1159900",
        "lon": "-79.0299800",
        "pop": 919899
    },
    {
        "name": "Salem",
        "country": "IN",
        "lat": "11.6537600",
        "lon": "78.1553800",
        "pop": 917414
    },
    {
        "name": "S\u00e3o Lu\u00eds",
        "country": "BR",
        "lat": "-2.5297200",
        "lon": "-44.3027800",
        "pop": 917237
    },
    {
        "name": "Seongnam-si",
        "country": "KR",
        "lat": "37.4386100",
        "lon": "127.1377800",
        "pop": 914832
    },
    {
        "name": "Cartagena",
        "country": "CO",
        "lat": "10.3981700",
        "lon": "-75.4932800",
        "pop": 914552
    },
    {
        "name": "Antipolo",
        "country": "PH",
        "lat": "14.6257800",
        "lon": "121.1225100",
        "pop": 913712
    },
    {
        "name": "Columbus",
        "country": "US",
        "lat": "39.9611800",
        "lon": "-82.9987900",
        "pop": 913175
    },
    {
        "name": "Sialkot",
        "country": "PK",
        "lat": "32.4926800",
        "lon": "74.5313400",
        "pop": 911817
    },
    {
        "name": "Charlotte",
        "country": "US",
        "lat": "35.2270900",
        "lon": "-80.8431300",
        "pop": 911311
    },
    {
        "name": "Laibin",
        "country": "CN",
        "lat": "23.7474300",
        "lon": "109.2222200",
        "pop": 910282
    },
    {
        "name": "Warri",
        "country": "NG",
        "lat": "5.5173700",
        "lon": "5.7500600",
        "pop": 910000
    },
    {
        "name": "Naples",
        "country": "IT",
        "lat": "40.8521600",
        "lon": "14.2681100",
        "pop": 909048
    },
    {
        "name": "Padang",
        "country": "ID",
        "lat": "-0.9492400",
        "lon": "100.3542700",
        "pop": 909040
    },
    {
        "name": "Xiaogan",
        "country": "CN",
        "lat": "30.9268900",
        "lon": "113.9222100",
        "pop": 908266
    },
    {
        "name": "Campo Grande",
        "country": "BR",
        "lat": "-20.4427800",
        "lon": "-54.6463900",
        "pop": 906092
    },
    {
        "name": "Ziyang",
        "country": "CN",
        "lat": "30.1210800",
        "lon": "104.6481100",
        "pop": 905729
    },
    {
        "name": "Bobo-Dioulasso",
        "country": "BF",
        "lat": "11.1771500",
        "lon": "-4.2979000",
        "pop": 904920
    },
    {
        "name": "Bahawalpur",
        "country": "PK",
        "lat": "29.3977900",
        "lon": "71.6752000",
        "pop": 903795
    },
    {
        "name": "Quzhou",
        "country": "CN",
        "lat": "28.9594400",
        "lon": "118.8686100",
        "pop": 902767
    },
    {
        "name": "Blantyre",
        "country": "MW",
        "lat": "-15.7849900",
        "lon": "35.0085400",
        "pop": 902588
    },
    {
        "name": "Donetsk",
        "country": "UA",
        "lat": "48.0230000",
        "lon": "37.8022400",
        "pop": 901645
    },
    {
        "name": "Bishkek",
        "country": "KG",
        "lat": "42.8700000",
        "lon": "74.5900000",
        "pop": 900000
    },
    {
        "name": "Qom",
        "country": "IR",
        "lat": "34.6401000",
        "lon": "50.8764000",
        "pop": 900000
    },
    {
        "name": "Ab\u016b Ghurayb",
        "country": "IQ",
        "lat": "33.3056300",
        "lon": "44.1847700",
        "pop": 900000
    },
    {
        "name": "Zaozhuang",
        "country": "CN",
        "lat": "34.8647200",
        "lon": "117.5541700",
        "pop": 899753
    },
    {
        "name": "Krasnodar",
        "country": "RU",
        "lat": "45.0453400",
        "lon": "38.9817800",
        "pop": 899541
    },
    {
        "name": "Natal",
        "country": "BR",
        "lat": "-5.7950000",
        "lon": "-35.2094400",
        "pop": 896708
    },
    {
        "name": "Pingxiang",
        "country": "CN",
        "lat": "27.6167200",
        "lon": "113.8535300",
        "pop": 893550
    },
    {
        "name": "Canc\u00fan",
        "country": "MX",
        "lat": "21.1742900",
        "lon": "-86.8465600",
        "pop": 888797
    },
    {
        "name": "Indianapolis",
        "country": "US",
        "lat": "39.7683800",
        "lon": "-86.1580400",
        "pop": 887642
    },
    {
        "name": "Gurugram",
        "country": "IN",
        "lat": "28.4601000",
        "lon": "77.0263500",
        "pop": 886519
    },
    {
        "name": "Bhubaneswar",
        "country": "IN",
        "lat": "20.2724100",
        "lon": "85.8338500",
        "pop": 885363
    },
    {
        "name": "Zhoushan",
        "country": "CN",
        "lat": "29.9886900",
        "lon": "122.2048800",
        "pop": 882932
    },
    {
        "name": "Qiqihar",
        "country": "CN",
        "lat": "47.3392200",
        "lon": "123.9615400",
        "pop": 882364
    },
    {
        "name": "As Sulaym\u0101n\u012byah",
        "country": "IQ",
        "lat": "35.5649600",
        "lon": "45.4329000",
        "pop": 878146
    },
    {
        "name": "Puning",
        "country": "CN",
        "lat": "23.3107200",
        "lon": "116.1686900",
        "pop": 874954
    },
    {
        "name": "Pikine",
        "country": "SN",
        "lat": "14.7645700",
        "lon": "-17.3907100",
        "pop": 874062
    },
    {
        "name": "Bhiwandi",
        "country": "IN",
        "lat": "19.3002300",
        "lon": "73.0588100",
        "pop": 874032
    },
    {
        "name": "Soshanguve",
        "country": "ZA",
        "lat": "-25.4728800",
        "lon": "28.0991900",
        "pop": 872309
    },
    {
        "name": "Teresina",
        "country": "BR",
        "lat": "-5.0891700",
        "lon": "-42.8019400",
        "pop": 871126
    },
    {
        "name": "Marseille",
        "country": "FR",
        "lat": "43.2969500",
        "lon": "5.3810700",
        "pop": 870731
    },
    {
        "name": "Ankang",
        "country": "CN",
        "lat": "32.6800000",
        "lon": "109.0172200",
        "pop": 870126
    },
    {
        "name": "Jalandhar",
        "country": "IN",
        "lat": "31.3255600",
        "lon": "75.5791700",
        "pop": 868929
    },
    {
        "name": "Rotterdam",
        "country": "NL",
        "lat": "51.9225000",
        "lon": "4.4791700",
        "pop": 868135
    },
    {
        "name": "Langfang",
        "country": "CN",
        "lat": "39.5207900",
        "lon": "116.7147100",
        "pop": 868066
    },
    {
        "name": "Jiaozuo",
        "country": "CN",
        "lat": "35.2392500",
        "lon": "113.2391400",
        "pop": 865413
    },
    {
        "name": "Wanxian",
        "country": "CN",
        "lat": "30.8160100",
        "lon": "108.3740700",
        "pop": 859662
    },
    {
        "name": "Guang\u2019an",
        "country": "CN",
        "lat": "30.4741300",
        "lon": "106.6369600",
        "pop": 858159
    },
    {
        "name": "Johor Bahru",
        "country": "MY",
        "lat": "1.4655000",
        "lon": "103.7578000",
        "pop": 858118
    },
    {
        "name": "Cheongju-si",
        "country": "KR",
        "lat": "36.6372200",
        "lon": "127.4897200",
        "pop": 853938
    },
    {
        "name": "Pasig City",
        "country": "PH",
        "lat": "14.5869100",
        "lon": "121.0614000",
        "pop": 853050
    },
    {
        "name": "Kanayannur",
        "country": "IN",
        "lat": "9.9666700",
        "lon": "76.2666700",
        "pop": 851406
    },
    {
        "name": "Tegucigalpa",
        "country": "HN",
        "lat": "14.0818000",
        "lon": "-87.2068100",
        "pop": 850848
    },
    {
        "name": "Bucheon-si",
        "country": "KR",
        "lat": "37.4988900",
        "lon": "126.7830600",
        "pop": 850731
    },
    {
        "name": "Thanh H\u00f3a",
        "country": "VN",
        "lat": "19.8000000",
        "lon": "105.7666700",
        "pop": 850000
    },
    {
        "name": "Turin",
        "country": "IT",
        "lat": "45.0704900",
        "lon": "7.6868200",
        "pop": 847287
    },
    {
        "name": "Malang",
        "country": "ID",
        "lat": "-7.9797000",
        "lon": "112.6304000",
        "pop": 847182
    },
    {
        "name": "Al Ain City",
        "country": "AE",
        "lat": "24.1916700",
        "lon": "55.7605600",
        "pop": 846747
    },
    {
        "name": "Libreville",
        "country": "GA",
        "lat": "0.3924100",
        "lon": "9.4535600",
        "pop": 846090
    },
    {
        "name": "Saratov",
        "country": "RU",
        "lat": "51.5404800",
        "lon": "45.9901000",
        "pop": 844858
    },
    {
        "name": "Ulan Bator",
        "country": "MN",
        "lat": "47.9077100",
        "lon": "106.8832400",
        "pop": 844818
    },
    {
        "name": "Weihai",
        "country": "CN",
        "lat": "37.5091400",
        "lon": "122.1135600",
        "pop": 844310
    },
    {
        "name": "Takeo",
        "country": "KH",
        "lat": "10.9908100",
        "lon": "104.7849800",
        "pop": 843931
    },
    {
        "name": "Cochabamba",
        "country": "BO",
        "lat": "-17.3819500",
        "lon": "-66.1599500",
        "pop": 841276
    },
    {
        "name": "Ahvaz",
        "country": "IR",
        "lat": "31.3190100",
        "lon": "48.6842000",
        "pop": 841145
    },
    {
        "name": "Xinyu",
        "country": "CN",
        "lat": "27.8042900",
        "lon": "114.9333500",
        "pop": 839488
    },
    {
        "name": "Pietermaritzburg",
        "country": "ZA",
        "lat": "-29.6167900",
        "lon": "30.3927800",
        "pop": 839327
    },
    {
        "name": "Yibin",
        "country": "CN",
        "lat": "28.7593000",
        "lon": "104.6399400",
        "pop": 836340
    },
    {
        "name": "Naucalpan de Ju\u00e1rez",
        "country": "MX",
        "lat": "19.4785100",
        "lon": "-99.2396300",
        "pop": 834434
    },
    {
        "name": "Kampung Baru Subang",
        "country": "MY",
        "lat": "3.1500000",
        "lon": "101.5333300",
        "pop": 833571
    },
    {
        "name": "Bouak\u00e9",
        "country": "CI",
        "lat": "7.6938500",
        "lon": "-5.0303100",
        "pop": 832371
    },
    {
        "name": "Samarinda",
        "country": "ID",
        "lat": "-0.4916700",
        "lon": "117.1458300",
        "pop": 831460
    },
    {
        "name": "Taicang",
        "country": "CN",
        "lat": "31.4477800",
        "lon": "121.0938900",
        "pop": 831113
    },
    {
        "name": "San Francisco",
        "country": "US",
        "lat": "37.7749300",
        "lon": "-122.4194200",
        "pop": 827526
    },
    {
        "name": "Sakai",
        "country": "JP",
        "lat": "34.5821600",
        "lon": "135.4665300",
        "pop": 826161
    },
    {
        "name": "Valencia",
        "country": "ES",
        "lat": "39.4739100",
        "lon": "-0.3796600",
        "pop": 824340
    },
    {
        "name": "Nova Igua\u00e7u",
        "country": "BR",
        "lat": "-22.7591700",
        "lon": "-43.4511100",
        "pop": 823302
    },
    {
        "name": "Chenzhou",
        "country": "CN",
        "lat": "25.8000000",
        "lon": "113.0333300",
        "pop": 822534
    },
    {
        "name": "Duque de Caxias",
        "country": "BR",
        "lat": "-22.7855600",
        "lon": "-43.3116700",
        "pop": 818329
    },
    {
        "name": "Jo\u00e3o Pessoa",
        "country": "BR",
        "lat": "-7.1150000",
        "lon": "-34.8630600",
        "pop": 817511
    },
    {
        "name": "Bukavu",
        "country": "CD",
        "lat": "-2.4907700",
        "lon": "28.8428100",
        "pop": 816811
    },
    {
        "name": "Barcelona",
        "country": "VE",
        "lat": "10.1384000",
        "lon": "-64.6876900",
        "pop": 815141
    },
    {
        "name": "Bangui",
        "country": "CF",
        "lat": "4.3612200",
        "lon": "18.5549600",
        "pop": 812407
    },
    {
        "name": "Hermosillo",
        "country": "MX",
        "lat": "29.0887400",
        "lon": "-110.9667700",
        "pop": 812229
    },
    {
        "name": "Bhayandar",
        "country": "IN",
        "lat": "19.3015700",
        "lon": "72.8510700",
        "pop": 809378
    },
    {
        "name": "Culiac\u00e1n",
        "country": "MX",
        "lat": "24.8020900",
        "lon": "-107.3942100",
        "pop": 808416
    },
    {
        "name": "Petaling Jaya",
        "country": "MY",
        "lat": "3.1072600",
        "lon": "101.6067100",
        "pop": 807879
    },
    {
        "name": "Malatya",
        "country": "TR",
        "lat": "38.3501800",
        "lon": "38.3166700",
        "pop": 806156
    },
    {
        "name": "Anqing",
        "country": "CN",
        "lat": "30.5136500",
        "lon": "117.0472300",
        "pop": 804493
    },
    {
        "name": "Oran",
        "country": "DZ",
        "lat": "35.6990600",
        "lon": "-0.6358800",
        "pop": 803329
    },
    {
        "name": "Freetown",
        "country": "SL",
        "lat": "8.4871400",
        "lon": "-13.2356000",
        "pop": 802639
    },
    {
        "name": "San Pedro Sula",
        "country": "HN",
        "lat": "15.5058500",
        "lon": "-88.0258800",
        "pop": 801259
    },
    {
        "name": "Narela",
        "country": "IN",
        "lat": "28.8526700",
        "lon": "77.0928800",
        "pop": 800000
    },
    {
        "name": "Xingtai",
        "country": "CN",
        "lat": "37.0621700",
        "lon": "114.4927200",
        "pop": 798770
    },
    {
        "name": "Niigata",
        "country": "JP",
        "lat": "37.9225900",
        "lon": "139.0412500",
        "pop": 797591
    },
    {
        "name": "Muscat",
        "country": "OM",
        "lat": "23.5841300",
        "lon": "58.4077800",
        "pop": 797000
    },
    {
        "name": "Zarqa",
        "country": "JO",
        "lat": "32.0727500",
        "lon": "36.0879600",
        "pop": 792665
    },
    {
        "name": "\u00c7ankaya",
        "country": "TR",
        "lat": "39.9179000",
        "lon": "32.8626800",
        "pop": 792189
    },
    {
        "name": "Hamamatsu",
        "country": "JP",
        "lat": "34.7000000",
        "lon": "137.7333300",
        "pop": 791707
    },
    {
        "name": "Kolwezi",
        "country": "CD",
        "lat": "-10.7148400",
        "lon": "25.4667400",
        "pop": 790248
    },